[
    {
        "address": "AVENUE DU MARECHAL DE LATTRE DE TASSIGNY",
        "available_bike_stands": 20,
        "available_bikes": 5,
        "banking": true,
        "bike_stands": 26,
        "bonus": false,
        "contract_name": "creteil",
        "name": "01 - LATTRE DE TASSIGNY",
        "number": 1,
        "position": {
            "lat": 48.7988350967829,
            "lng": 2.45387633773323
        },
        "status": "OPEN"
    },
    {
        "address": "AVENUE DE VERDUN",
        "available_bike_stands": 8,
        "available_bikes": 0,
        "banking": true,
        "bike_stands": 22,
        "bonus": false,
        "contract_name": "creteil",
        "name": "02 - HOPITAL INTERCOMMUNAL (CHIC)",
        "number": 2,
        "position": {
            "lat": 48.796173633089616,
            "lng": 2.46370624551545
        },
        "status": "OPEN"
    },
    {
        "address": "En face du 1 ter rue de joly",
        "available_bike_stands": 11,
        "available_bikes": 13,
        "banking": true,
        "bike_stands": 24,
        "bonus": false,
        "contract_name": "creteil",
        "name": "03 - RUE DU GENERAL LECLERC - CENTRE ANCIEN",
        "number": 3,
        "position": {
            "lat": 48.7907886168279,
            "lng": 2.46489018474127
        },
        "status": "OPEN"
    },
    {
        "address": "Avenue du G\u00e9n\u00e9ral de Gaulle",
        "available_bike_stands": 31,
        "available_bikes": 8,
        "banking": true,
        "bike_stands": 40,
        "bonus": false,
        "contract_name": "creteil",
        "name": "04 - UNIVERSITE - MAIL DES MECHES",
        "number": 4,
        "position": {
            "lat": 48.788110780811415,
            "lng": 2.446248652158302
        },
        "status": "OPEN"
    },
    {
        "address": "AVENUE DE LA BRECHE",
        "available_bike_stands": 19,
        "available_bikes": 5,
        "banking": true,
        "bike_stands": 24,
        "bonus": false,
        "contract_name": "creteil",
        "name": "06 - AVENUE DE LA BRECHE",
        "number": 6,
        "position": {
            "lat": 48.78350102672993,
            "lng": 2.454576358402657
        },
        "status": "OPEN"
    },
    {
        "address": "Avenue du docteur Paul Casalis",
        "available_bike_stands": 15,
        "available_bikes": 5,
        "banking": true,
        "bike_stands": 20,
        "bonus": false,
        "contract_name": "creteil",
        "name": "07- AVENUE DU DOCTEUR PAUL CASALIS",
        "number": 7,
        "position": {
            "lat": 48.78021352952279,
            "lng": 2.469692230994849
        },
        "status": "OPEN"
    },
    {
        "address": "ALLEE FERNAND POUILLON",
        "available_bike_stands": 16,
        "available_bikes": 4,
        "banking": true,
        "bike_stands": 22,
        "bonus": false,
        "contract_name": "creteil",
        "name": "09 - EUROPARC",
        "number": 9,
        "position": {
            "lat": 48.76603756422197,
            "lng": 2.471314855226071
        },
        "status": "OPEN"
    },
    {
        "address": "RUE MAGELLAN",
        "available_bike_stands": 14,
        "available_bikes": 6,
        "banking": true,
        "bike_stands": 20,
        "bonus": false,
        "contract_name": "creteil",
        "name": "10 - MAGELLAN",
        "number": 10,
        "position": {
            "lat": 48.76895633113984,
            "lng": 2.456664667660431
        },
        "status": "OPEN"
    }
]