[
    {
        "address": "Jonas Liesgt. 2000 lillestr\u00f8m",
        "available_bike_stands": 16,
        "available_bikes": 3,
        "banking": true,
        "bike_stands": 20,
        "bonus": true,
        "contract_name": "lillestrom",
        "name": "LILLESTR\u00d8M STASJON",
        "number": 1,
        "position": {
            "lat": 59.95363,
            "lng": 11.04428
        },
        "status": "OPEN"
    },
    {
        "address": "Nesgata 1,2004 Lillestr\u00f8m",
        "available_bike_stands": 5,
        "available_bikes": 15,
        "banking": true,
        "bike_stands": 20,
        "bonus": true,
        "contract_name": "lillestrom",
        "name": "THON HOTEL ARENA",
        "number": 2,
        "position": {
            "lat": 59.95128,
            "lng": 11.04959
        },
        "status": "OPEN"
    },
    {
        "address": "Vestbygata 61, Lillestrom",
        "available_bike_stands": 13,
        "available_bikes": 7,
        "banking": true,
        "bike_stands": 20,
        "bonus": true,
        "contract_name": "lillestrom",
        "name": "SKEDSMO VGS",
        "number": 3,
        "position": {
            "lat": 59.964446,
            "lng": 11.040774
        },
        "status": "OPEN"
    },
    {
        "address": "Br\u00f8tergata/Riksvei 120,Lillestr\u00f8m",
        "available_bike_stands": 11,
        "available_bikes": 9,
        "banking": true,
        "bike_stands": 20,
        "bonus": true,
        "contract_name": "lillestrom",
        "name": "STORTORGET",
        "number": 4,
        "position": {
            "lat": 59.95797,
            "lng": 11.05029
        },
        "status": "OPEN"
    },
    {
        "address": "C.J Hansensvei 3B,2007 Kjeller",
        "available_bike_stands": 15,
        "available_bikes": 4,
        "banking": true,
        "bike_stands": 20,
        "bonus": true,
        "contract_name": "lillestrom",
        "name": "\u00c5R\u00c5SEN",
        "number": 5,
        "position": {
            "lat": 59.96221,
            "lng": 11.06191
        },
        "status": "OPEN"
    },
    {
        "address": "Gunnar Randers vei 10,2007 Kjeller",
        "available_bike_stands": 7,
        "available_bikes": 12,
        "banking": true,
        "bike_stands": 20,
        "bonus": false,
        "contract_name": "lillestrom",
        "name": "KJELLER",
        "number": 6,
        "position": {
            "lat": 59.973906,
            "lng": 11.047391
        },
        "status": "OPEN"
    }
]