[
    {
        "address": "Gosposvetska cesta 69",
        "available_bike_stands": 17,
        "available_bikes": 5,
        "banking": false,
        "bike_stands": 22,
        "bonus": false,
        "contract_name": "maribor",
        "name": "GOSPOSVETSKA C. - TURNERJEVA UL.",
        "number": 1,
        "position": {
            "lat": 46.562695,
            "lng": 15.62935
        },
        "status": "OPEN"
    },
    {
        "address": "Gosposvetska cesta 20",
        "available_bike_stands": 14,
        "available_bikes": 7,
        "banking": false,
        "bike_stands": 22,
        "bonus": false,
        "contract_name": "maribor",
        "name": "GOSPOSVETSKA C. - VRBANSKA C.",
        "number": 2,
        "position": {
            "lat": 46.561422,
            "lng": 15.637118
        },
        "status": "OPEN"
    },
    {
        "address": "Gosposvetska cesta 4",
        "available_bike_stands": 18,
        "available_bikes": 2,
        "banking": false,
        "bike_stands": 20,
        "bonus": false,
        "contract_name": "maribor",
        "name": "GOSPOSVETSKA C. - III. GIMNAZIJA",
        "number": 3,
        "position": {
            "lat": 46.560761,
            "lng": 15.64053
        },
        "status": "OPEN"
    },
    {
        "address": "Strossmayerjeva ulica 3",
        "available_bike_stands": 19,
        "available_bikes": 1,
        "banking": false,
        "bike_stands": 20,
        "bonus": false,
        "contract_name": "maribor",
        "name": "STROSSMAYERJEVA UL. - TR\u017dNICA",
        "number": 4,
        "position": {
            "lat": 46.558498,
            "lng": 15.64146
        },
        "status": "OPEN"
    },
    {
        "address": "Mladinska ulica 15",
        "available_bike_stands": 6,
        "available_bikes": 10,
        "banking": false,
        "bike_stands": 16,
        "bonus": false,
        "contract_name": "maribor",
        "name": "MLADINSKA UL. - TRUBARJEVA UL.",
        "number": 5,
        "position": {
            "lat": 46.56294,
            "lng": 15.644185
        },
        "status": "OPEN"
    },
    {
        "address": "Slom\u0161kov trg 10",
        "available_bike_stands": 19,
        "available_bikes": 1,
        "banking": false,
        "bike_stands": 20,
        "bonus": false,
        "contract_name": "maribor",
        "name": "PO\u0160TA - SLOM\u0160KOV TRG",
        "number": 6,
        "position": {
            "lat": 46.558924,
            "lng": 15.644443
        },
        "status": "OPEN"
    },
    {
        "address": "Partizanska cesta 6a",
        "available_bike_stands": 20,
        "available_bikes": 0,
        "banking": false,
        "bike_stands": 20,
        "bonus": false,
        "contract_name": "maribor",
        "name": "PARTIZANSKA C. - TIC",
        "number": 7,
        "position": {
            "lat": 46.560227,
            "lng": 15.650781
        },
        "status": "OPEN"
    },
    {
        "address": "Razlagova ulica 1",
        "available_bike_stands": 3,
        "available_bikes": 17,
        "banking": false,
        "bike_stands": 20,
        "bonus": false,
        "contract_name": "maribor",
        "name": "RAZLAGOVA UL. - OB\u010cINA",
        "number": 8,
        "position": {
            "lat": 46.56196,
            "lng": 15.650235
        },
        "status": "OPEN"
    },
    {
        "address": "Ulica slovenske osamosvojitve 5",
        "available_bike_stands": 15,
        "available_bikes": 5,
        "banking": false,
        "bike_stands": 20,
        "bonus": false,
        "contract_name": "maribor",
        "name": "NKBM - TRG LEONA \u0160TUKLJA",
        "number": 9,
        "position": {
            "lat": 46.558519,
            "lng": 15.649072
        },
        "status": "OPEN"
    },
    {
        "address": "Glavni trg 20",
        "available_bike_stands": 12,
        "available_bikes": 8,
        "banking": false,
        "bike_stands": 20,
        "bonus": false,
        "contract_name": "maribor",
        "name": "TELEMACH - GLAVNI TRG - STARI PERON",
        "number": 10,
        "position": {
            "lat": 46.557328,
            "lng": 15.646833
        },
        "status": "OPEN"
    },
    {
        "address": "Partizanska c. 13",
        "available_bike_stands": 3,
        "available_bikes": 17,
        "banking": false,
        "bike_stands": 20,
        "bonus": false,
        "contract_name": "maribor",
        "name": "PARTIZANSKA C. - CANKARJEVA UL.",
        "number": 11,
        "position": {
            "lat": 46.56056,
            "lng": 15.652935
        },
        "status": "OPEN"
    },
    {
        "address": "Mlinska ulica 24",
        "available_bike_stands": 3,
        "available_bikes": 17,
        "banking": false,
        "bike_stands": 20,
        "bonus": false,
        "contract_name": "maribor",
        "name": "MLINSKA UL . - AVTOBUSNA POSTAJA",
        "number": 12,
        "position": {
            "lat": 46.558534,
            "lng": 15.654739
        },
        "status": "OPEN"
    },
    {
        "address": "Partizanska cesta 46-48",
        "available_bike_stands": 1,
        "available_bikes": 19,
        "banking": false,
        "bike_stands": 20,
        "bonus": false,
        "contract_name": "maribor",
        "name": "PARTIZANSKA C. - \u017dELEZNI\u0160KA POSTAJA",
        "number": 13,
        "position": {
            "lat": 46.561555,
            "lng": 15.65692
        },
        "status": "OPEN"
    },
    {
        "address": "Ulica Mo\u0161e Pijada 6",
        "available_bike_stands": 15,
        "available_bikes": 5,
        "banking": false,
        "bike_stands": 20,
        "bonus": false,
        "contract_name": "maribor",
        "name": "ULICA MO\u0160E PIJADA - UKC",
        "number": 14,
        "position": {
            "lat": 46.552652,
            "lng": 15.646023
        },
        "status": "OPEN"
    },
    {
        "address": "Ljubljanska ul. 30-25",
        "available_bike_stands": 9,
        "available_bikes": 11,
        "banking": false,
        "bike_stands": 20,
        "bonus": false,
        "contract_name": "maribor",
        "name": "LJUBLJANSKA UL. - II. GIMNAZIJA",
        "number": 15,
        "position": {
            "lat": 46.548853,
            "lng": 15.645591
        },
        "status": "OPEN"
    },
    {
        "address": "Koro\u0161ka cesta 74",
        "available_bike_stands": 13,
        "available_bikes": 6,
        "banking": false,
        "bike_stands": 20,
        "bonus": false,
        "contract_name": "maribor",
        "name": "KORO\u0160KA C. - KORO\u0160KI VETER",
        "number": 16,
        "position": {
            "lat": 46.559319,
            "lng": 15.63498
        },
        "status": "OPEN"
    },
    {
        "address": "NA POLJANAH 53",
        "available_bike_stands": 17,
        "available_bikes": 3,
        "banking": false,
        "bike_stands": 20,
        "bonus": false,
        "contract_name": "maribor",
        "name": "NA POLJANAH - HEROJA \u0160ERCERJA",
        "number": 17,
        "position": {
            "lat": 46.553109,
            "lng": 15.624098
        },
        "status": "OPEN"
    },
    {
        "address": "Koro\u0161ka cesta 173",
        "available_bike_stands": 17,
        "available_bikes": 3,
        "banking": false,
        "bike_stands": 20,
        "bonus": false,
        "contract_name": "maribor",
        "name": "LIDL - KORO\u0160KA C.",
        "number": 18,
        "position": {
            "lat": 46.565603,
            "lng": 15.623133
        },
        "status": "OPEN"
    },
    {
        "address": "Titova cesta 15",
        "available_bike_stands": 5,
        "available_bikes": 15,
        "banking": false,
        "bike_stands": 20,
        "bonus": false,
        "contract_name": "maribor",
        "name": "LIDL - TITOVA C.",
        "number": 19,
        "position": {
            "lat": 46.551963,
            "lng": 15.651564
        },
        "status": "OPEN"
    },
    {
        "address": "Pobre\u0161ka cesta 18",
        "available_bike_stands": 8,
        "available_bikes": 13,
        "banking": false,
        "bike_stands": 21,
        "bonus": false,
        "contract_name": "maribor",
        "name": "EUROPARK - POBRE\u0160KA C.",
        "number": 20,
        "position": {
            "lat": 46.554703,
            "lng": 15.652826
        },
        "status": "OPEN"
    },
    {
        "address": "Gorkega ulica 32",
        "available_bike_stands": 16,
        "available_bikes": 4,
        "banking": false,
        "bike_stands": 20,
        "bonus": false,
        "contract_name": "maribor",
        "name": "GORKEGA UL. - O\u0160 FRANCETA PRE\u0160ERNA",
        "number": 21,
        "position": {
            "lat": 46.550683,
            "lng": 15.639333
        },
        "status": "OPEN"
    },
    {
        "address": "Gorkega ulica 48",
        "available_bike_stands": 20,
        "available_bikes": 0,
        "banking": false,
        "bike_stands": 20,
        "bonus": false,
        "contract_name": "maribor",
        "name": "DVORANA TABOR",
        "number": 22,
        "position": {
            "lat": 46.549005,
            "lng": 15.635014
        },
        "status": "OPEN"
    },
    {
        "address": "LJUBLJANSKA 41",
        "available_bike_stands": 13,
        "available_bikes": 7,
        "banking": false,
        "bike_stands": 20,
        "bonus": false,
        "contract_name": "maribor",
        "name": "LJUBLJANSKA UL. - FOCHEVA",
        "number": 23,
        "position": {
            "lat": 46.545947,
            "lng": 15.644015
        },
        "status": "OPEN"
    },
    {
        "address": "Betnavska c. 83",
        "available_bike_stands": 9,
        "available_bikes": 10,
        "banking": false,
        "bike_stands": 20,
        "bonus": false,
        "contract_name": "maribor",
        "name": "VZAJEMNA, VARUH ZDRAVJA - BETNAVSKA C.",
        "number": 24,
        "position": {
            "lat": 46.54199,
            "lng": 15.63831
        },
        "status": "OPEN"
    },
    {
        "address": "Kardeljeva c. 55",
        "available_bike_stands": 3,
        "available_bikes": 17,
        "banking": false,
        "bike_stands": 20,
        "bonus": false,
        "contract_name": "maribor",
        "name": "SPAR - TR\u017dNICA TABOR",
        "number": 25,
        "position": {
            "lat": 46.542655,
            "lng": 15.634329
        },
        "status": "OPEN"
    },
    {
        "address": "C. PROLETARSKIH BRIGAD 71",
        "available_bike_stands": 3,
        "available_bikes": 17,
        "banking": false,
        "bike_stands": 20,
        "bonus": false,
        "contract_name": "maribor",
        "name": "NICEHASH - C. PROLETARSKIH BRIGAD",
        "number": 26,
        "position": {
            "lat": 46.543986,
            "lng": 15.629317
        },
        "status": "OPEN"
    }
]