[
    {
        "address": "Place du Port Communeau",
        "available_bike_stands": 33,
        "available_bikes": 0,
        "banking": true,
        "bike_stands": 33,
        "bonus": false,
        "contract_name": "nantes",
        "name": "001-PR\u00c9FECTURE",
        "number": 1,
        "position": {
            "lat": 47.2198398196124,
            "lng": -1.55489134108209
        },
        "status": "OPEN"
    },
    {
        "address": "29, rue de Strasbourg",
        "available_bike_stands": 19,
        "available_bikes": 0,
        "banking": false,
        "bike_stands": 20,
        "bonus": false,
        "contract_name": "nantes",
        "name": "002-H\u00d4TEL DE VILLE",
        "number": 2,
        "position": {
            "lat": 47.2185718130915,
            "lng": -1.55348429039295
        },
        "status": "OPEN"
    },
    {
        "address": "4, rue des Carm\u00e9lites - Place Tirant Lo Blanc",
        "available_bike_stands": 15,
        "available_bikes": 0,
        "banking": false,
        "bike_stands": 15,
        "bonus": false,
        "contract_name": "nantes",
        "name": "003-STRASBOURG",
        "number": 3,
        "position": {
            "lat": 47.2164797718207,
            "lng": -1.55154060534636
        },
        "status": "OPEN"
    },
    {
        "address": "18, rue du Moulin",
        "available_bike_stands": 14,
        "available_bikes": 1,
        "banking": false,
        "bike_stands": 15,
        "bonus": false,
        "contract_name": "nantes",
        "name": "004-MOULIN",
        "number": 4,
        "position": {
            "lat": 47.2166675820152,
            "lng": -1.5543847138777
        },
        "status": "OPEN"
    },
    {
        "address": "12, All\u00e9e Duquesne",
        "available_bike_stands": 18,
        "available_bikes": 0,
        "banking": false,
        "bike_stands": 18,
        "bonus": false,
        "contract_name": "nantes",
        "name": "005-BROSSARD",
        "number": 5,
        "position": {
            "lat": 47.2188372304694,
            "lng": -1.55674926307655
        },
        "status": "OPEN"
    },
    {
        "address": "7, all\u00e9e Duquesne",
        "available_bike_stands": 13,
        "available_bikes": 8,
        "banking": false,
        "bike_stands": 21,
        "bonus": false,
        "contract_name": "nantes",
        "name": "006-PLACE DU CIRQUE",
        "number": 6,
        "position": {
            "lat": 47.217596682406,
            "lng": -1.55693764537887
        },
        "status": "OPEN"
    },
    {
        "address": "2, all\u00e9e Penthi\u00e8vre",
        "available_bike_stands": 29,
        "available_bikes": 1,
        "banking": true,
        "bike_stands": 30,
        "bonus": false,
        "contract_name": "nantes",
        "name": "007-BARILLERIE",
        "number": 7,
        "position": {
            "lat": 47.2153313580104,
            "lng": -1.55612612597517
        },
        "status": "OPEN"
    },
    {
        "address": "4, rue de la Boucherie",
        "available_bike_stands": 24,
        "available_bikes": 0,
        "banking": true,
        "bike_stands": 24,
        "bonus": false,
        "contract_name": "nantes",
        "name": "008-BOUCHERIE",
        "number": 8,
        "position": {
            "lat": 47.2162008925882,
            "lng": -1.55711168019757
        },
        "status": "OPEN"
    },
    {
        "address": "Angle rue du Calvaire / Rue Gu\u00e9pin",
        "available_bike_stands": 13,
        "available_bikes": 1,
        "banking": false,
        "bike_stands": 14,
        "bonus": false,
        "contract_name": "nantes",
        "name": "009-GU\u00c9PIN",
        "number": 9,
        "position": {
            "lat": 47.2158145871395,
            "lng": -1.55901748516744
        },
        "status": "OPEN"
    },
    {
        "address": "12, mail Pablo Picasso",
        "available_bike_stands": 25,
        "available_bikes": 15,
        "banking": false,
        "bike_stands": 40,
        "bonus": false,
        "contract_name": "nantes",
        "name": "010- PICASSO",
        "number": 10,
        "position": {
            "lat": 47.216207,
            "lng": -1.533796
        },
        "status": "OPEN"
    },
    {
        "address": "8, rue du Calvaire - Place des Volontaires de la D\u00e9fense Passive",
        "available_bike_stands": 13,
        "available_bikes": 2,
        "banking": false,
        "bike_stands": 15,
        "bonus": false,
        "contract_name": "nantes",
        "name": "011-CALVAIRE",
        "number": 11,
        "position": {
            "lat": 47.2155789424271,
            "lng": -1.56067528370012
        },
        "status": "OPEN"
    },
    {
        "address": "1, boulevard Gabriel Guist'Hau - Place Delorme",
        "available_bike_stands": 20,
        "available_bikes": 0,
        "banking": true,
        "bike_stands": 20,
        "bonus": false,
        "contract_name": "nantes",
        "name": "012-DELORME",
        "number": 12,
        "position": {
            "lat": 47.2151581886857,
            "lng": -1.56390067346586
        },
        "status": "OPEN"
    },
    {
        "address": "3, rue Pierre Chereau",
        "available_bike_stands": 19,
        "available_bikes": 0,
        "banking": false,
        "bike_stands": 20,
        "bonus": false,
        "contract_name": "nantes",
        "name": "013-BRETAGNE SUD",
        "number": 13,
        "position": {
            "lat": 47.216787949913,
            "lng": -1.55916106661899
        },
        "status": "OPEN"
    },
    {
        "address": "35, Boulevard Amiral Courbet",
        "available_bike_stands": 14,
        "available_bikes": 0,
        "banking": false,
        "bike_stands": 14,
        "bonus": false,
        "contract_name": "nantes",
        "name": "014-SAINT F\u00c9LIX",
        "number": 14,
        "position": {
            "lat": 47.230334,
            "lng": -1.556133
        },
        "status": "OPEN"
    },
    {
        "address": "Place Aristide Briand",
        "available_bike_stands": 17,
        "available_bikes": 0,
        "banking": false,
        "bike_stands": 17,
        "bonus": false,
        "contract_name": "nantes",
        "name": "015-ARISTIDE BRIAND",
        "number": 15,
        "position": {
            "lat": 47.2171848232902,
            "lng": -1.56298679328837
        },
        "status": "OPEN"
    },
    {
        "address": "Face au 7, place Edouard Normand",
        "available_bike_stands": 14,
        "available_bikes": 1,
        "banking": false,
        "bike_stands": 15,
        "bonus": false,
        "contract_name": "nantes",
        "name": "016-\u00c9DOUARD NORMAND",
        "number": 16,
        "position": {
            "lat": 47.2190275447384,
            "lng": -1.56341948405375
        },
        "status": "OPEN"
    },
    {
        "address": "4, place Sainte Elisabeth",
        "available_bike_stands": 14,
        "available_bikes": 0,
        "banking": false,
        "bike_stands": 14,
        "bonus": false,
        "contract_name": "nantes",
        "name": "017-SAINTE \u00c9LISABETH",
        "number": 17,
        "position": {
            "lat": 47.2192139526135,
            "lng": -1.56157014764171
        },
        "status": "OPEN"
    },
    {
        "address": "23, place Viarme",
        "available_bike_stands": 12,
        "available_bikes": 2,
        "banking": false,
        "bike_stands": 14,
        "bonus": false,
        "contract_name": "nantes",
        "name": "018-VIARME",
        "number": 18,
        "position": {
            "lat": 47.2214293389855,
            "lng": -1.56330836686976
        },
        "status": "OPEN"
    },
    {
        "address": "1, place Saint Similien",
        "available_bike_stands": 14,
        "available_bikes": 1,
        "banking": false,
        "bike_stands": 15,
        "bonus": false,
        "contract_name": "nantes",
        "name": "019-SAINT SIMILIEN",
        "number": 19,
        "position": {
            "lat": 47.21985446733,
            "lng": -1.55892089047478
        },
        "status": "OPEN"
    },
    {
        "address": "7, all\u00e9e du Port Maillard - Cours Franklin Roosevelt",
        "available_bike_stands": 12,
        "available_bikes": 3,
        "banking": false,
        "bike_stands": 15,
        "bonus": false,
        "contract_name": "nantes",
        "name": "020-BOUFFAY",
        "number": 20,
        "position": {
            "lat": 47.214301,
            "lng": -1.552782
        },
        "status": "OPEN"
    },
    {
        "address": "6, rue Talensac",
        "available_bike_stands": 6,
        "available_bikes": 9,
        "banking": false,
        "bike_stands": 16,
        "bonus": false,
        "contract_name": "nantes",
        "name": "021-TALENSAC SUD",
        "number": 21,
        "position": {
            "lat": 47.2211433291291,
            "lng": -1.55647633932779
        },
        "status": "OPEN"
    },
    {
        "address": "118, rue de Coulmiers",
        "available_bike_stands": 9,
        "available_bikes": 2,
        "banking": false,
        "bike_stands": 11,
        "bonus": false,
        "contract_name": "nantes",
        "name": "023-BUAT",
        "number": 23,
        "position": {
            "lat": 47.2271454682246,
            "lng": -1.5424047412504
        },
        "status": "OPEN"
    },
    {
        "address": "25, quai de Versailles - Ile de Versailles",
        "available_bike_stands": 7,
        "available_bikes": 8,
        "banking": false,
        "bike_stands": 15,
        "bonus": false,
        "contract_name": "nantes",
        "name": "024-VERSAILLES",
        "number": 24,
        "position": {
            "lat": 47.2245149071911,
            "lng": -1.55371196140233
        },
        "status": "OPEN"
    },
    {
        "address": "61, boulevard Ernest Dalby",
        "available_bike_stands": 0,
        "available_bikes": 15,
        "banking": false,
        "bike_stands": 15,
        "bonus": false,
        "contract_name": "nantes",
        "name": "025-DALBY",
        "number": 25,
        "position": {
            "lat": 47.223508869812,
            "lng": -1.52995959270347
        },
        "status": "OPEN"
    },
    {
        "address": "30, boulevard Gabriel Guist'Hau - Rue Harouys",
        "available_bike_stands": 15,
        "available_bikes": 0,
        "banking": false,
        "bike_stands": 15,
        "bonus": false,
        "contract_name": "nantes",
        "name": "026-GUIST'HAU SUD",
        "number": 26,
        "position": {
            "lat": 47.2168279599745,
            "lng": -1.56700452626517
        },
        "status": "OPEN"
    },
    {
        "address": "42, boulevard Gabriel Guist'Hau",
        "available_bike_stands": 14,
        "available_bikes": 1,
        "banking": false,
        "bike_stands": 15,
        "bonus": false,
        "contract_name": "nantes",
        "name": "027-GUIST'HAU NORD",
        "number": 27,
        "position": {
            "lat": 47.2179298163251,
            "lng": -1.56917188330244
        },
        "status": "OPEN"
    },
    {
        "address": "Rue Joseph Cholet",
        "available_bike_stands": 0,
        "available_bikes": 0,
        "banking": false,
        "bike_stands": 16,
        "bonus": false,
        "contract_name": "nantes",
        "name": "028-CARRI\u00c8RE MISERY",
        "number": 28,
        "position": {
            "lat": 47.2000724914656,
            "lng": -1.57990384592236
        },
        "status": "CLOSED"
    },
    {
        "address": "18, all\u00e9e Duguay Trouin",
        "available_bike_stands": 12,
        "available_bikes": 14,
        "banking": true,
        "bike_stands": 26,
        "bonus": false,
        "contract_name": "nantes",
        "name": "029-DUGUAY TROUIN",
        "number": 29,
        "position": {
            "lat": 47.2126959612969,
            "lng": -1.55730644460216
        },
        "status": "OPEN"
    },
    {
        "address": "Place du Commerce - Cours Franklin Roosevelt",
        "available_bike_stands": 25,
        "available_bikes": 6,
        "banking": false,
        "bike_stands": 33,
        "bonus": false,
        "contract_name": "nantes",
        "name": "030-COMMERCE",
        "number": 30,
        "position": {
            "lat": 47.2138876911855,
            "lng": -1.5555053519911
        },
        "status": "OPEN"
    },
    {
        "address": "All\u00e9e de la Bourse - Boulevard des Nations-Unies",
        "available_bike_stands": 13,
        "available_bikes": 9,
        "banking": true,
        "bike_stands": 22,
        "bonus": false,
        "contract_name": "nantes",
        "name": "031-BOURSE",
        "number": 31,
        "position": {
            "lat": 47.2120830307532,
            "lng": -1.55908655123987
        },
        "status": "OPEN"
    },
    {
        "address": "Place Foch",
        "available_bike_stands": 14,
        "available_bikes": 0,
        "banking": true,
        "bike_stands": 14,
        "bonus": false,
        "contract_name": "nantes",
        "name": "032-FOCH",
        "number": 32,
        "position": {
            "lat": 47.2192484,
            "lng": -1.550185
        },
        "status": "OPEN"
    },
    {
        "address": "5, rue Racine",
        "available_bike_stands": 11,
        "available_bikes": 4,
        "banking": false,
        "bike_stands": 15,
        "bonus": false,
        "contract_name": "nantes",
        "name": "033-RACINE",
        "number": 33,
        "position": {
            "lat": 47.2135226137199,
            "lng": -1.5631408744314
        },
        "status": "OPEN"
    },
    {
        "address": "24, quai de la Fosse",
        "available_bike_stands": 21,
        "available_bikes": 3,
        "banking": true,
        "bike_stands": 25,
        "bonus": false,
        "contract_name": "nantes",
        "name": "034-M\u00c9DIATH\u00c8QUE",
        "number": 34,
        "position": {
            "lat": 47.2108869258159,
            "lng": -1.56174490565258
        },
        "status": "OPEN"
    },
    {
        "address": "Rue Pierre Louis Ath\u00e9nas",
        "available_bike_stands": 14,
        "available_bikes": 0,
        "banking": false,
        "bike_stands": 15,
        "bonus": false,
        "contract_name": "nantes",
        "name": "035-JEAN V",
        "number": 35,
        "position": {
            "lat": 47.2123685630664,
            "lng": -1.56497287562598
        },
        "status": "OPEN"
    },
    {
        "address": "10, rue d'Alger",
        "available_bike_stands": 8,
        "available_bikes": 7,
        "banking": false,
        "bike_stands": 15,
        "bonus": false,
        "contract_name": "nantes",
        "name": "036-ALGER",
        "number": 36,
        "position": {
            "lat": 47.210549,
            "lng": -1.567368
        },
        "status": "OPEN"
    },
    {
        "address": "1, all\u00e9e de l'\u00cele Gloriette",
        "available_bike_stands": 27,
        "available_bikes": 0,
        "banking": false,
        "bike_stands": 27,
        "bonus": false,
        "contract_name": "nantes",
        "name": "037-F\u00c9LIX \u00c9BOU\u00c9",
        "number": 37,
        "position": {
            "lat": 47.211465063355,
            "lng": -1.5568245371939
        },
        "status": "OPEN"
    },
    {
        "address": "Place Alexis-Ricordeau - Chauss\u00e9e de la Madeleine",
        "available_bike_stands": 19,
        "available_bikes": 0,
        "banking": true,
        "bike_stands": 40,
        "bonus": false,
        "contract_name": "nantes",
        "name": "038-RICORDEAU",
        "number": 38,
        "position": {
            "lat": 47.2121084631418,
            "lng": -1.55304912932047
        },
        "status": "OPEN"
    },
    {
        "address": "1, quai Moncousu - Pont Haudaudine",
        "available_bike_stands": 24,
        "available_bikes": 0,
        "banking": false,
        "bike_stands": 24,
        "bonus": false,
        "contract_name": "nantes",
        "name": "039-QUAI MONCOUSU",
        "number": 39,
        "position": {
            "lat": 47.2094065738737,
            "lng": -1.55523314463147
        },
        "status": "OPEN"
    },
    {
        "address": "Quai Moncousu - Pont G\u00e9n\u00e9ral Audibert",
        "available_bike_stands": 21,
        "available_bikes": 0,
        "banking": false,
        "bike_stands": 21,
        "bonus": false,
        "contract_name": "nantes",
        "name": "040-MADELEINE",
        "number": 40,
        "position": {
            "lat": 47.2088046424378,
            "lng": -1.55041191411915
        },
        "status": "OPEN"
    },
    {
        "address": "88, quai de la Fosse",
        "available_bike_stands": 6,
        "available_bikes": 9,
        "banking": false,
        "bike_stands": 15,
        "bonus": false,
        "contract_name": "nantes",
        "name": "041-BRUNELI\u00c8RE",
        "number": 41,
        "position": {
            "lat": 47.208905,
            "lng": -1.56823
        },
        "status": "OPEN"
    },
    {
        "address": "Quai Ernest Renaud - Place Jacksonville",
        "available_bike_stands": 19,
        "available_bikes": 9,
        "banking": true,
        "bike_stands": 28,
        "bonus": false,
        "contract_name": "nantes",
        "name": "042-GARE MARITIME",
        "number": 42,
        "position": {
            "lat": 47.2065977289879,
            "lng": -1.5726102869705
        },
        "status": "OPEN"
    },
    {
        "address": "3, boulevard L\u00e9on Bureau",
        "available_bike_stands": 19,
        "available_bikes": 17,
        "banking": true,
        "bike_stands": 36,
        "bonus": false,
        "contract_name": "nantes",
        "name": "043-MACHINE DE L'\u00ceLE",
        "number": 43,
        "position": {
            "lat": 47.206918958696,
            "lng": -1.56480679078299
        },
        "status": "OPEN"
    },
    {
        "address": "19, quai Fran\u00e7ois Mitterand - 1, rue Olympe de Gouges",
        "available_bike_stands": 20,
        "available_bikes": 10,
        "banking": true,
        "bike_stands": 31,
        "bonus": false,
        "contract_name": "nantes",
        "name": "044-PALAIS DE JUSTICE",
        "number": 44,
        "position": {
            "lat": 47.2083172884415,
            "lng": -1.5611730779894
        },
        "status": "OPEN"
    },
    {
        "address": "25, boulevard de la Prairie au Duc",
        "available_bike_stands": 9,
        "available_bikes": 4,
        "banking": false,
        "bike_stands": 13,
        "bonus": false,
        "contract_name": "nantes",
        "name": "045-PRAIRIE AU DUC",
        "number": 45,
        "position": {
            "lat": 47.2047839355992,
            "lng": -1.55892310936669
        },
        "status": "OPEN"
    },
    {
        "address": "3, place de la R\u00e9publique",
        "available_bike_stands": 10,
        "available_bikes": 10,
        "banking": false,
        "bike_stands": 26,
        "bonus": false,
        "contract_name": "nantes",
        "name": "046-R\u00c9PUBLIQUE",
        "number": 46,
        "position": {
            "lat": 47.2053240902952,
            "lng": -1.55518310791618
        },
        "status": "OPEN"
    },
    {
        "address": "1, boulevard des Martyrs Nantais de la R\u00e9sistance",
        "available_bike_stands": 25,
        "available_bikes": 2,
        "banking": true,
        "bike_stands": 27,
        "bonus": false,
        "contract_name": "nantes",
        "name": "047-MARTYRS NANTAIS",
        "number": 47,
        "position": {
            "lat": 47.206933,
            "lng": -1.548169
        },
        "status": "OPEN"
    },
    {
        "address": "15, rue de Verdun",
        "available_bike_stands": 14,
        "available_bikes": 0,
        "banking": true,
        "bike_stands": 14,
        "bonus": false,
        "contract_name": "nantes",
        "name": "048-VERDUN",
        "number": 48,
        "position": {
            "lat": 47.2175053746786,
            "lng": -1.55184978437031
        },
        "status": "OPEN"
    },
    {
        "address": "2, place de la Duchesse Anne",
        "available_bike_stands": 14,
        "available_bikes": 1,
        "banking": false,
        "bike_stands": 15,
        "bonus": false,
        "contract_name": "nantes",
        "name": "049-DUCHESSE ANNE",
        "number": 49,
        "position": {
            "lat": 47.2167,
            "lng": -1.547253
        },
        "status": "OPEN"
    },
    {
        "address": "7, rue des Etats",
        "available_bike_stands": 16,
        "available_bikes": 0,
        "banking": true,
        "bike_stands": 16,
        "bonus": false,
        "contract_name": "nantes",
        "name": "050-CH\u00c2TEAU",
        "number": 50,
        "position": {
            "lat": 47.2151496951626,
            "lng": -1.55022624256337
        },
        "status": "OPEN"
    },
    {
        "address": "5, boulevard de Berlin",
        "available_bike_stands": 0,
        "available_bikes": 0,
        "banking": false,
        "bike_stands": 20,
        "bonus": false,
        "contract_name": "nantes",
        "name": "051-TABARLY",
        "number": 51,
        "position": {
            "lat": 47.2141946314965,
            "lng": -1.52973588598036
        },
        "status": "CLOSED"
    },
    {
        "address": "8, all\u00e9e Baco",
        "available_bike_stands": 15,
        "available_bikes": 0,
        "banking": false,
        "bike_stands": 15,
        "bonus": false,
        "contract_name": "nantes",
        "name": "052-BACO",
        "number": 52,
        "position": {
            "lat": 47.2143275245891,
            "lng": -1.54875055574198
        },
        "status": "OPEN"
    },
    {
        "address": "10, rue des Olivettes",
        "available_bike_stands": 15,
        "available_bikes": 0,
        "banking": false,
        "bike_stands": 15,
        "bonus": false,
        "contract_name": "nantes",
        "name": "053-OLIVETTES",
        "number": 53,
        "position": {
            "lat": 47.2117363932221,
            "lng": -1.54988602493776
        },
        "status": "OPEN"
    },
    {
        "address": "2, rue de Jemmapes - 2, avenue Jean-Claude Bonduelle",
        "available_bike_stands": 33,
        "available_bikes": 0,
        "banking": true,
        "bike_stands": 34,
        "bonus": false,
        "contract_name": "nantes",
        "name": "054-CIT\u00c9 INTERNATIONALE DES CONGR\u00c8S",
        "number": 54,
        "position": {
            "lat": 47.2131800855278,
            "lng": -1.54495254166858
        },
        "status": "OPEN"
    },
    {
        "address": "11, rue de Belfort",
        "available_bike_stands": 16,
        "available_bikes": 1,
        "banking": false,
        "bike_stands": 17,
        "bonus": false,
        "contract_name": "nantes",
        "name": "055-MAGELLAN",
        "number": 55,
        "position": {
            "lat": 47.2107814065594,
            "lng": -1.54429847094521
        },
        "status": "OPEN"
    },
    {
        "address": "9, rue Fran\u00e7ois Albert",
        "available_bike_stands": 9,
        "available_bikes": 5,
        "banking": false,
        "bike_stands": 15,
        "bonus": false,
        "contract_name": "nantes",
        "name": "056-VINCENT GACHE",
        "number": 56,
        "position": {
            "lat": 47.2067986185753,
            "lng": -1.54177773985064
        },
        "status": "OPEN"
    },
    {
        "address": "20, rue Ga\u00ebtan Rondeau",
        "available_bike_stands": 0,
        "available_bikes": 20,
        "banking": false,
        "bike_stands": 20,
        "bonus": false,
        "contract_name": "nantes",
        "name": "057-GA\u00cbTAN RONDEAU",
        "number": 57,
        "position": {
            "lat": 47.2053961321791,
            "lng": -1.53758186300399
        },
        "status": "OPEN"
    },
    {
        "address": "8,rue Andr\u00e9 Tardieu",
        "available_bike_stands": 2,
        "available_bikes": 13,
        "banking": false,
        "bike_stands": 15,
        "bonus": false,
        "contract_name": "nantes",
        "name": "058-PALAIS DES SPORTS",
        "number": 58,
        "position": {
            "lat": 47.208465,
            "lng": -1.536657
        },
        "status": "OPEN"
    },
    {
        "address": "35, quai de Malakoff",
        "available_bike_stands": 16,
        "available_bikes": 8,
        "banking": false,
        "bike_stands": 24,
        "bonus": false,
        "contract_name": "nantes",
        "name": "059-STADE SAUPIN",
        "number": 59,
        "position": {
            "lat": 47.213682,
            "lng": -1.540181
        },
        "status": "OPEN"
    },
    {
        "address": "27 boulevard Stalingrad",
        "available_bike_stands": 40,
        "available_bikes": 0,
        "banking": true,
        "bike_stands": 40,
        "bonus": false,
        "contract_name": "nantes",
        "name": "060-GARE DE NANTES NORD",
        "number": 60,
        "position": {
            "lat": 47.217212,
            "lng": -1.543517
        },
        "status": "OPEN"
    },
    {
        "address": "23, quai Ferdinand Favre",
        "available_bike_stands": 14,
        "available_bikes": 1,
        "banking": false,
        "bike_stands": 15,
        "bonus": false,
        "contract_name": "nantes",
        "name": "061-LIEU UNIQUE",
        "number": 61,
        "position": {
            "lat": 47.2155914639598,
            "lng": -1.54590593911211
        },
        "status": "OPEN"
    },
    {
        "address": "22-23 boulevard de Stalingrad",
        "available_bike_stands": 40,
        "available_bikes": 0,
        "banking": false,
        "bike_stands": 40,
        "bonus": false,
        "contract_name": "nantes",
        "name": "062-GARE DE NANTES NORD 2",
        "number": 62,
        "position": {
            "lat": 47.218103,
            "lng": -1.541751
        },
        "status": "OPEN"
    },
    {
        "address": "Rue Stanislas Baudry  - face rue Georges Cl\u00e9menceau",
        "available_bike_stands": 14,
        "available_bikes": 0,
        "banking": false,
        "bike_stands": 15,
        "bonus": false,
        "contract_name": "nantes",
        "name": "063-JARDIN DES PLANTES",
        "number": 63,
        "position": {
            "lat": 47.219834197319,
            "lng": -1.54471896453159
        },
        "status": "OPEN"
    },
    {
        "address": "24, rue du Mar\u00e9chal Joffre",
        "available_bike_stands": 15,
        "available_bikes": 0,
        "banking": false,
        "bike_stands": 15,
        "bonus": false,
        "contract_name": "nantes",
        "name": "064-SAINT CL\u00c9MENT",
        "number": 64,
        "position": {
            "lat": 47.2217851835226,
            "lng": -1.5470992337185
        },
        "status": "OPEN"
    },
    {
        "address": "9, cours Sully",
        "available_bike_stands": 10,
        "available_bikes": 5,
        "banking": false,
        "bike_stands": 15,
        "bonus": false,
        "contract_name": "nantes",
        "name": "065-COURS SULLY",
        "number": 65,
        "position": {
            "lat": 47.2225873399067,
            "lng": -1.55166644254598
        },
        "status": "OPEN"
    },
    {
        "address": "Face au 23, avenue Chanzy",
        "available_bike_stands": 14,
        "available_bikes": 1,
        "banking": false,
        "bike_stands": 15,
        "bonus": false,
        "contract_name": "nantes",
        "name": "066-CHANZY",
        "number": 66,
        "position": {
            "lat": 47.2254298853335,
            "lng": -1.54799992590737
        },
        "status": "OPEN"
    },
    {
        "address": "Place Waldeck Rousseau - Pont G\u00e9n\u00e9ral de la Motte Rouge",
        "available_bike_stands": 8,
        "available_bikes": 14,
        "banking": true,
        "bike_stands": 22,
        "bonus": false,
        "contract_name": "nantes",
        "name": "067-WALDECK ROUSSEAU",
        "number": 67,
        "position": {
            "lat": 47.2277747610651,
            "lng": -1.55214798607222
        },
        "status": "OPEN"
    },
    {
        "address": "65, rue Dufour",
        "available_bike_stands": 14,
        "available_bikes": 1,
        "banking": true,
        "bike_stands": 15,
        "bonus": false,
        "contract_name": "nantes",
        "name": "068-LIVET",
        "number": 68,
        "position": {
            "lat": 47.2240678794875,
            "lng": -1.54521243421509
        },
        "status": "OPEN"
    },
    {
        "address": "11 bis, boulevard Stalingrad",
        "available_bike_stands": 6,
        "available_bikes": 9,
        "banking": false,
        "bike_stands": 15,
        "bonus": false,
        "contract_name": "nantes",
        "name": "069-MANUFACTURE",
        "number": 69,
        "position": {
            "lat": 47.2192163807113,
            "lng": -1.53584744327638
        },
        "status": "OPEN"
    },
    {
        "address": "Quai de Malakoff - Canal Saint-F\u00e9lix",
        "available_bike_stands": 70,
        "available_bikes": 0,
        "banking": true,
        "bike_stands": 70,
        "bonus": false,
        "contract_name": "nantes",
        "name": "070-GARE DE NANTES SUD",
        "number": 70,
        "position": {
            "lat": 47.215505,
            "lng": -1.542844
        },
        "status": "OPEN"
    },
    {
        "address": "18, rue Talensac - 26, rue de Bel Air",
        "available_bike_stands": 12,
        "available_bikes": 2,
        "banking": false,
        "bike_stands": 14,
        "bonus": false,
        "contract_name": "nantes",
        "name": "071-TALENSAC NORD",
        "number": 71,
        "position": {
            "lat": 47.2218536381884,
            "lng": -1.55894074669074
        },
        "status": "OPEN"
    },
    {
        "address": "138, rue Paul Bellamy",
        "available_bike_stands": 3,
        "available_bikes": 11,
        "banking": false,
        "bike_stands": 15,
        "bonus": false,
        "contract_name": "nantes",
        "name": "072-BELLAMY-GU\u00c9 MOREAU",
        "number": 72,
        "position": {
            "lat": 47.2286256905746,
            "lng": -1.56180639301113
        },
        "status": "OPEN"
    },
    {
        "address": "4, place Emile Sarradin",
        "available_bike_stands": 10,
        "available_bikes": 3,
        "banking": false,
        "bike_stands": 13,
        "bonus": false,
        "contract_name": "nantes",
        "name": "073-SARRADIN",
        "number": 73,
        "position": {
            "lat": 47.2208824330189,
            "lng": -1.57043859807393
        },
        "status": "OPEN"
    },
    {
        "address": "8, place Canclaux",
        "available_bike_stands": 9,
        "available_bikes": 5,
        "banking": false,
        "bike_stands": 15,
        "bonus": false,
        "contract_name": "nantes",
        "name": "074-CANCLAUX",
        "number": 74,
        "position": {
            "lat": 47.2143336608893,
            "lng": -1.57492461719297
        },
        "status": "OPEN"
    },
    {
        "address": "14 bis, rue Lamorici\u00e8re - Place Beaumanoir",
        "available_bike_stands": 1,
        "available_bikes": 14,
        "banking": false,
        "bike_stands": 15,
        "bonus": false,
        "contract_name": "nantes",
        "name": "075-LAMORICI\u00c8RE",
        "number": 75,
        "position": {
            "lat": 47.212308958847,
            "lng": -1.57136936022191
        },
        "status": "OPEN"
    },
    {
        "address": "8, place Ren\u00e9 Bouhier",
        "available_bike_stands": 0,
        "available_bikes": 15,
        "banking": false,
        "bike_stands": 15,
        "bonus": false,
        "contract_name": "nantes",
        "name": "076-REN\u00c9 BOUHIER",
        "number": 76,
        "position": {
            "lat": 47.2094290925244,
            "lng": -1.57051533628071
        },
        "status": "OPEN"
    },
    {
        "address": "6, quai Fran\u00e7ois Mitterrand",
        "available_bike_stands": 26,
        "available_bikes": 6,
        "banking": true,
        "bike_stands": 32,
        "bonus": false,
        "contract_name": "nantes",
        "name": "077-\u00c9COLE D'ARCHITECTURE",
        "number": 77,
        "position": {
            "lat": 47.2076056402121,
            "lng": -1.55753246791432
        },
        "status": "OPEN"
    },
    {
        "address": "7, rue Fran\u00e7oise Giroud - Boulevard G\u00e9n\u00e9ral de Gaulle",
        "available_bike_stands": 14,
        "available_bikes": 6,
        "banking": false,
        "bike_stands": 21,
        "bonus": false,
        "contract_name": "nantes",
        "name": "078-DE GAULLE",
        "number": 78,
        "position": {
            "lat": 47.2084436771829,
            "lng": -1.54051448829019
        },
        "status": "OPEN"
    },
    {
        "address": "15, quai de Malakoff",
        "available_bike_stands": 3,
        "available_bikes": 12,
        "banking": false,
        "bike_stands": 15,
        "bonus": false,
        "contract_name": "nantes",
        "name": "079-MALAKOFF",
        "number": 79,
        "position": {
            "lat": 47.213395,
            "lng": -1.536954
        },
        "status": "OPEN"
    },
    {
        "address": "25, boulevard Victor Hugo - 28, boulevard Gustave Roch",
        "available_bike_stands": 1,
        "available_bikes": 14,
        "banking": false,
        "bike_stands": 15,
        "bonus": false,
        "contract_name": "nantes",
        "name": "080-VICTOR HUGO",
        "number": 80,
        "position": {
            "lat": 47.2040032084911,
            "lng": -1.5515484848032
        },
        "status": "OPEN"
    },
    {
        "address": "Devant le 8, place Mangin",
        "available_bike_stands": 1,
        "available_bikes": 13,
        "banking": false,
        "bike_stands": 14,
        "bonus": false,
        "contract_name": "nantes",
        "name": "081-MANGIN",
        "number": 81,
        "position": {
            "lat": 47.2009555172397,
            "lng": -1.54550725123162
        },
        "status": "OPEN"
    },
    {
        "address": "120, rue Dr Jules S\u00e9billeau",
        "available_bike_stands": 1,
        "available_bikes": 15,
        "banking": true,
        "bike_stands": 16,
        "bonus": false,
        "contract_name": "nantes",
        "name": "082-S\u00c9BILLEAU",
        "number": 82,
        "position": {
            "lat": 47.2067575123084,
            "lng": -1.53311824492362
        },
        "status": "OPEN"
    },
    {
        "address": "9, boulevard Alexandre Millerand - 28, boulevard Georges Pompidou",
        "available_bike_stands": 1,
        "available_bikes": 13,
        "banking": false,
        "bike_stands": 14,
        "bonus": false,
        "contract_name": "nantes",
        "name": "083-MILLERAND",
        "number": 83,
        "position": {
            "lat": 47.2081996450388,
            "lng": -1.53018043595997
        },
        "status": "OPEN"
    },
    {
        "address": "Rue de la Loire - place Gaston Defferre",
        "available_bike_stands": 3,
        "available_bikes": 19,
        "banking": false,
        "bike_stands": 22,
        "bonus": false,
        "contract_name": "nantes",
        "name": "084-R\u00c9GION",
        "number": 84,
        "position": {
            "lat": 47.2107421421814,
            "lng": -1.52593345192508
        },
        "status": "OPEN"
    },
    {
        "address": "102, rue Paul Bellamy",
        "available_bike_stands": 12,
        "available_bikes": 1,
        "banking": false,
        "bike_stands": 14,
        "bonus": false,
        "contract_name": "nantes",
        "name": "085-BEL AIR",
        "number": 85,
        "position": {
            "lat": 47.2263944309861,
            "lng": -1.56002281967663
        },
        "status": "OPEN"
    },
    {
        "address": "Rue de Berry - Rue des Hauts Pav\u00e9s",
        "available_bike_stands": 14,
        "available_bikes": 2,
        "banking": false,
        "bike_stands": 16,
        "bonus": false,
        "contract_name": "nantes",
        "name": "086-HAUTS PAV\u00c9S",
        "number": 86,
        "position": {
            "lat": 47.2254706269804,
            "lng": -1.56750184250227
        },
        "status": "OPEN"
    },
    {
        "address": "41, rue Alexandre Dumas - Place Anatole France",
        "available_bike_stands": 15,
        "available_bikes": 0,
        "banking": false,
        "bike_stands": 15,
        "bonus": false,
        "contract_name": "nantes",
        "name": "087-ANATOLE FRANCE",
        "number": 87,
        "position": {
            "lat": 47.2236048153991,
            "lng": -1.57137357811241
        },
        "status": "OPEN"
    },
    {
        "address": "1, boulevard Allard - Place G\u00e9n\u00e9ral Mellinet",
        "available_bike_stands": 3,
        "available_bikes": 12,
        "banking": false,
        "bike_stands": 15,
        "bonus": false,
        "contract_name": "nantes",
        "name": "088-MELLINET",
        "number": 88,
        "position": {
            "lat": 47.2115010701178,
            "lng": -1.57717541432178
        },
        "status": "OPEN"
    },
    {
        "address": "65, boulevard Saint-Aignan",
        "available_bike_stands": 13,
        "available_bikes": 1,
        "banking": false,
        "bike_stands": 14,
        "bonus": false,
        "contract_name": "nantes",
        "name": "089-SAINT-AIGNAN",
        "number": 89,
        "position": {
            "lat": 47.2074386375471,
            "lng": -1.57868926431099
        },
        "status": "OPEN"
    },
    {
        "address": "Angle boulevard Gaston Serpette - Boulevard Auguste Pageot",
        "available_bike_stands": 6,
        "available_bikes": 9,
        "banking": false,
        "bike_stands": 15,
        "bonus": false,
        "contract_name": "nantes",
        "name": "090-PROC\u00c9",
        "number": 90,
        "position": {
            "lat": 47.2241950617326,
            "lng": -1.57661284372726
        },
        "status": "OPEN"
    },
    {
        "address": "65, boulevard Lelasseur",
        "available_bike_stands": 9,
        "available_bikes": 5,
        "banking": false,
        "bike_stands": 18,
        "bonus": false,
        "contract_name": "nantes",
        "name": "091-ROND POINT DE VANNES",
        "number": 91,
        "position": {
            "lat": 47.2295806053692,
            "lng": -1.57211457799373
        },
        "status": "OPEN"
    },
    {
        "address": "Angle boulevard Lelasseur - Rue Paul Bellamy",
        "available_bike_stands": 6,
        "available_bikes": 8,
        "banking": true,
        "bike_stands": 14,
        "bonus": false,
        "contract_name": "nantes",
        "name": "092-ROND POINT DE RENNES",
        "number": 92,
        "position": {
            "lat": 47.2330281847759,
            "lng": -1.56605906933562
        },
        "status": "OPEN"
    },
    {
        "address": "A l'angle route de la Joneli\u00e8re -  Boulevard Guy Mollet",
        "available_bike_stands": 3,
        "available_bikes": 37,
        "banking": true,
        "bike_stands": 40,
        "bonus": false,
        "contract_name": "nantes",
        "name": "093-FACULT\u00c9S",
        "number": 93,
        "position": {
            "lat": 47.2462980684235,
            "lng": -1.5553090111073
        },
        "status": "OPEN"
    },
    {
        "address": "Boulevard du Petit Port - place du 8 mai 1945",
        "available_bike_stands": 0,
        "available_bikes": 20,
        "banking": false,
        "bike_stands": 20,
        "bonus": false,
        "contract_name": "nantes",
        "name": "094-PETIT PORT",
        "number": 94,
        "position": {
            "lat": 47.2432639149755,
            "lng": -1.55634461016798
        },
        "status": "OPEN"
    },
    {
        "address": "50, boulevard Michelet",
        "available_bike_stands": 19,
        "available_bikes": 7,
        "banking": false,
        "bike_stands": 26,
        "bonus": false,
        "contract_name": "nantes",
        "name": "095-MICHELET",
        "number": 95,
        "position": {
            "lat": 47.235158,
            "lng": -1.556322
        },
        "status": "OPEN"
    },
    {
        "address": "Pont de la Torti\u00e8re - boulevard Eug\u00e8ne Orieux",
        "available_bike_stands": 3,
        "available_bikes": 13,
        "banking": true,
        "bike_stands": 16,
        "bonus": false,
        "contract_name": "nantes",
        "name": "096-TORTI\u00c8RE",
        "number": 96,
        "position": {
            "lat": 47.2353352222086,
            "lng": -1.54922176680989
        },
        "status": "OPEN"
    },
    {
        "address": "Avenue de la Lib\u00e9ration - rue Eug\u00e8ne Pottier - REZ\u00c9",
        "available_bike_stands": 0,
        "available_bikes": 15,
        "banking": false,
        "bike_stands": 15,
        "bonus": false,
        "contract_name": "nantes",
        "name": "098-HUIT MAI",
        "number": 98,
        "position": {
            "lat": 47.189212047513,
            "lng": -1.55082803645635
        },
        "status": "OPEN"
    },
    {
        "address": "Rue Saint Jacques",
        "available_bike_stands": 0,
        "available_bikes": 15,
        "banking": false,
        "bike_stands": 15,
        "bonus": false,
        "contract_name": "nantes",
        "name": "099-ST JACQUES",
        "number": 99,
        "position": {
            "lat": 47.1958989090141,
            "lng": -1.5365406634647
        },
        "status": "OPEN"
    },
    {
        "address": "Parc de la Gr\u00e9neraie - NANTES",
        "available_bike_stands": 0,
        "available_bikes": 19,
        "banking": true,
        "bike_stands": 20,
        "bonus": false,
        "contract_name": "nantes",
        "name": "100-GR\u00c9NERAIE",
        "number": 100,
        "position": {
            "lat": 47.1999230929052,
            "lng": -1.53471754047048
        },
        "status": "OPEN"
    },
    {
        "address": "13, rue Esnoul des Ch\u00e2telets",
        "available_bike_stands": 1,
        "available_bikes": 27,
        "banking": true,
        "bike_stands": 28,
        "bonus": false,
        "contract_name": "nantes",
        "name": "101-PIRMIL",
        "number": 101,
        "position": {
            "lat": 47.1965313642396,
            "lng": -1.54156809120326
        },
        "status": "OPEN"
    },
    {
        "address": "Rue de la Gare - REZ\u00c9",
        "available_bike_stands": 0,
        "available_bikes": 19,
        "banking": true,
        "bike_stands": 20,
        "bonus": false,
        "contract_name": "nantes",
        "name": "102-GARE DE PONT ROUSSEAU",
        "number": 102,
        "position": {
            "lat": 47.19316,
            "lng": -1.549212
        },
        "status": "OPEN"
    },
    {
        "address": "Grue Jaune - Face au mail des Chantiers",
        "available_bike_stands": 19,
        "available_bikes": 2,
        "banking": false,
        "bike_stands": 21,
        "bonus": false,
        "contract_name": "nantes",
        "name": "103-GRUE JAUNE",
        "number": 103,
        "position": {
            "lat": 47.204879,
            "lng": -1.569191
        },
        "status": "OPEN"
    },
    {
        "address": "20, quai des Antilles",
        "available_bike_stands": 23,
        "available_bikes": 1,
        "banking": false,
        "bike_stands": 24,
        "bonus": false,
        "contract_name": "nantes",
        "name": "104-ANTILLES",
        "number": 104,
        "position": {
            "lat": 47.202547,
            "lng": -1.572325
        },
        "status": "OPEN"
    },
    {
        "address": "Boulevard des Antilles - quai Pr\u00e9sident Wilson - Grue Titan Grise",
        "available_bike_stands": 11,
        "available_bikes": 4,
        "banking": false,
        "bike_stands": 15,
        "bonus": false,
        "contract_name": "nantes",
        "name": "105-HANGAR \u00c0 BANANES",
        "number": 105,
        "position": {
            "lat": 47.199408,
            "lng": -1.573184
        },
        "status": "OPEN"
    },
    {
        "address": "2, rue des Garennes",
        "available_bike_stands": 10,
        "available_bikes": 5,
        "banking": false,
        "bike_stands": 15,
        "bonus": false,
        "contract_name": "nantes",
        "name": "106-GARENNES",
        "number": 106,
        "position": {
            "lat": 47.202127,
            "lng": -1.5787
        },
        "status": "OPEN"
    },
    {
        "address": "Rue Francisco Ferrer",
        "available_bike_stands": 1,
        "available_bikes": 14,
        "banking": false,
        "bike_stands": 15,
        "bonus": false,
        "contract_name": "nantes",
        "name": "107-MOUTONNERIE",
        "number": 107,
        "position": {
            "lat": 47.219901,
            "lng": -1.532947
        },
        "status": "OPEN"
    },
    {
        "address": "Face 97, rue Bonne Garde",
        "available_bike_stands": 0,
        "available_bikes": 23,
        "banking": false,
        "bike_stands": 24,
        "bonus": false,
        "contract_name": "nantes",
        "name": "108-BONNE GARDE",
        "number": 108,
        "position": {
            "lat": 47.197217,
            "lng": -1.532105
        },
        "status": "OPEN"
    },
    {
        "address": "Face 31, boulevard Emile Gabory",
        "available_bike_stands": 0,
        "available_bikes": 0,
        "banking": false,
        "bike_stands": 21,
        "bonus": false,
        "contract_name": "nantes",
        "name": "109-CLOS TOREAU",
        "number": 109,
        "position": {
            "lat": 47.19426,
            "lng": -1.529313
        },
        "status": "CLOSED"
    },
    {
        "address": "1, avenue de Bretagne - REZ\u00c9",
        "available_bike_stands": 1,
        "available_bikes": 19,
        "banking": false,
        "bike_stands": 20,
        "bonus": false,
        "contract_name": "nantes",
        "name": "110-AUDITORIUM",
        "number": 110,
        "position": {
            "lat": 47.185402,
            "lng": -1.554025
        },
        "status": "OPEN"
    },
    {
        "address": "Avenue de la Vend\u00e9e - Face \u00e0 l'Espace Diderot - REZ\u00c9",
        "available_bike_stands": 1,
        "available_bikes": 20,
        "banking": false,
        "bike_stands": 21,
        "bonus": false,
        "contract_name": "nantes",
        "name": "111-DIDEROT",
        "number": 111,
        "position": {
            "lat": 47.184491,
            "lng": -1.562532
        },
        "status": "OPEN"
    },
    {
        "address": "10, rue Marion Cahour - REZ\u00c9",
        "available_bike_stands": 1,
        "available_bikes": 14,
        "banking": false,
        "bike_stands": 15,
        "bonus": false,
        "contract_name": "nantes",
        "name": "112-P\u00d4LE SOCIAL MARION CAHOUR",
        "number": 112,
        "position": {
            "lat": 47.188684,
            "lng": -1.567201
        },
        "status": "OPEN"
    },
    {
        "address": "Place Jean-Baptiste Daviais - REZ\u00c9",
        "available_bike_stands": 0,
        "available_bikes": 20,
        "banking": false,
        "bike_stands": 21,
        "bonus": false,
        "contract_name": "nantes",
        "name": "113-MAIRIE DE REZ\u00c9",
        "number": 113,
        "position": {
            "lat": 47.191117,
            "lng": -1.569362
        },
        "status": "OPEN"
    },
    {
        "address": "Angle rue de l'Abb\u00e9 Gr\u00e9goire - avenue Mar\u00e9chal de Tassigny - REZ\u00c9",
        "available_bike_stands": 5,
        "available_bikes": 20,
        "banking": true,
        "bike_stands": 25,
        "bonus": false,
        "contract_name": "nantes",
        "name": "114-ATOUTSUD",
        "number": 114,
        "position": {
            "lat": 47.194493,
            "lng": -1.570365
        },
        "status": "OPEN"
    },
    {
        "address": "Face 11, quai Marcel Boissard - Trentemoult - REZ\u00c9",
        "available_bike_stands": 2,
        "available_bikes": 23,
        "banking": false,
        "bike_stands": 26,
        "bonus": false,
        "contract_name": "nantes",
        "name": "115-TRENTEMOULT",
        "number": 115,
        "position": {
            "lat": 47.195308,
            "lng": -1.581806
        },
        "status": "OPEN"
    },
    {
        "address": "Rond-Point de Louisiane",
        "available_bike_stands": 10,
        "available_bikes": 9,
        "banking": false,
        "bike_stands": 20,
        "bonus": false,
        "contract_name": "nantes",
        "name": "116-LIBERT\u00c9",
        "number": 116,
        "position": {
            "lat": 47.198124,
            "lng": -1.588395
        },
        "status": "OPEN"
    },
    {
        "address": "Place de la Libert\u00e9",
        "available_bike_stands": 4,
        "available_bikes": 11,
        "banking": false,
        "bike_stands": 15,
        "bonus": false,
        "contract_name": "nantes",
        "name": "117-MAIRIE DE CHANTENAY",
        "number": 117,
        "position": {
            "lat": 47.20656,
            "lng": -1.58785
        },
        "status": "OPEN"
    },
    {
        "address": "Boulevard L\u00e9on Jouhaux",
        "available_bike_stands": 8,
        "available_bikes": 6,
        "banking": false,
        "bike_stands": 14,
        "bonus": false,
        "contract_name": "nantes",
        "name": "118-\u00c9GALIT\u00c9",
        "number": 118,
        "position": {
            "lat": 47.209661,
            "lng": -1.589002
        },
        "status": "OPEN"
    },
    {
        "address": "Place Emile Zola",
        "available_bike_stands": 2,
        "available_bikes": 23,
        "banking": false,
        "bike_stands": 25,
        "bonus": false,
        "contract_name": "nantes",
        "name": "119-ZOLA",
        "number": 119,
        "position": {
            "lat": 47.213859,
            "lng": -1.586108
        },
        "status": "OPEN"
    },
    {
        "address": "16, boulevard Jules Verne",
        "available_bike_stands": 17,
        "available_bikes": 13,
        "banking": true,
        "bike_stands": 30,
        "bonus": false,
        "contract_name": "nantes",
        "name": "120-ROND-POINT DE PARIS",
        "number": 120,
        "position": {
            "lat": 47.234853,
            "lng": -1.534981
        },
        "status": "OPEN"
    },
    {
        "address": "12, place Victor Richard",
        "available_bike_stands": 0,
        "available_bikes": 15,
        "banking": false,
        "bike_stands": 15,
        "bonus": false,
        "contract_name": "nantes",
        "name": "121-VICTOR RICHARD",
        "number": 121,
        "position": {
            "lat": 47.228614,
            "lng": -1.533329
        },
        "status": "OPEN"
    },
    {
        "address": "5, route de Sainte Luce",
        "available_bike_stands": 0,
        "available_bikes": 15,
        "banking": false,
        "bike_stands": 15,
        "bonus": false,
        "contract_name": "nantes",
        "name": "122-MITRIE",
        "number": 122,
        "position": {
            "lat": 47.22865,
            "lng": -1.526193
        },
        "status": "OPEN"
    },
    {
        "address": "3, place Gabriel Trarieux",
        "available_bike_stands": 0,
        "available_bikes": 20,
        "banking": false,
        "bike_stands": 20,
        "bonus": false,
        "contract_name": "nantes",
        "name": "123-TRARIEUX",
        "number": 123,
        "position": {
            "lat": 47.225957,
            "lng": -1.522334
        },
        "status": "OPEN"
    },
    {
        "address": "Boulevard des Pas Enchant\u00e9s - SAINT-S\u00c9BASTIEN-SUR-LOIRE",
        "available_bike_stands": 0,
        "available_bikes": 25,
        "banking": true,
        "bike_stands": 25,
        "bonus": false,
        "contract_name": "nantes",
        "name": "124-PAS ENCHANT\u00c9S",
        "number": 124,
        "position": {
            "lat": 47.205239,
            "lng": -1.522726
        },
        "status": "OPEN"
    },
    {
        "address": "Avenue de la Martelli\u00e8re - SAINT-S\u00c9BASTIEN-SUR-LOIRE",
        "available_bike_stands": 0,
        "available_bikes": 18,
        "banking": false,
        "bike_stands": 18,
        "bonus": false,
        "contract_name": "nantes",
        "name": "125-PLACIS",
        "number": 125,
        "position": {
            "lat": 47.199378,
            "lng": -1.520481
        },
        "status": "OPEN"
    }
]