[
    {
        "address": "Jardines de Pereda (Aprox. Correos y Castelar)",
        "available_bike_stands": 16,
        "available_bikes": 24,
        "banking": true,
        "bike_stands": 40,
        "bonus": false,
        "contract_name": "santander",
        "name": "001_JARDINES DE PEREDA",
        "number": 1,
        "position": {
            "lat": 43.461719,
            "lng": -3.8021
        },
        "status": "OPEN"
    },
    {
        "address": "Plaza de las Brisas (Aprox. Jardines de Piquio)",
        "available_bike_stands": 13,
        "available_bikes": 7,
        "banking": true,
        "bike_stands": 20,
        "bonus": false,
        "contract_name": "santander",
        "name": "002_PLAZA DE LAS BRISAS",
        "number": 2,
        "position": {
            "lat": 43.4744126704703,
            "lng": -3.78578134528458
        },
        "status": "OPEN"
    },
    {
        "address": "Parque las Llamas (Aprox. Palacio de Deportes)",
        "available_bike_stands": 6,
        "available_bikes": 14,
        "banking": true,
        "bike_stands": 20,
        "bonus": false,
        "contract_name": "santander",
        "name": "003_PARQUE LAS LLAMAS",
        "number": 3,
        "position": {
            "lat": 43.47573226037,
            "lng": -3.79806387098462
        },
        "status": "OPEN"
    },
    {
        "address": "Cormoran (Aprox. C/ de Manuel Garc\u00eda Lago)",
        "available_bike_stands": 6,
        "available_bikes": 14,
        "banking": true,
        "bike_stands": 20,
        "bonus": false,
        "contract_name": "santander",
        "name": "004_CORMOR\u00c1N",
        "number": 4,
        "position": {
            "lat": 43.4784718110308,
            "lng": -3.78865314567001
        },
        "status": "OPEN"
    },
    {
        "address": "Glorieta de los Delfines (Aprox. Avda de los Castros)",
        "available_bike_stands": 15,
        "available_bikes": 5,
        "banking": true,
        "bike_stands": 20,
        "bonus": false,
        "contract_name": "santander",
        "name": "005_GLORIETA DE LOS DELFINES",
        "number": 5,
        "position": {
            "lat": 43.4719661074837,
            "lng": -3.79285449619735
        },
        "status": "OPEN"
    },
    {
        "address": "Facultad de las Ciencias (Aprox. Glorieta de los Delfines)",
        "available_bike_stands": 11,
        "available_bikes": 14,
        "banking": true,
        "bike_stands": 25,
        "bonus": false,
        "contract_name": "santander",
        "name": "006_FACULDAD DE CIENCIAS",
        "number": 6,
        "position": {
            "lat": 43.4711061117108,
            "lng": -3.80058645890079
        },
        "status": "OPEN"
    },
    {
        "address": "Facultad de Derecho (Aprox. Facultad de Ciencias)",
        "available_bike_stands": 8,
        "available_bikes": 22,
        "banking": true,
        "bike_stands": 30,
        "bonus": false,
        "contract_name": "santander",
        "name": "007_FACULTAD DE DERECHO",
        "number": 7,
        "position": {
            "lat": 43.4701661089386,
            "lng": -3.80649947753026
        },
        "status": "OPEN"
    },
    {
        "address": "Plaza de Italia (Aprox. C/ de Joaqu\u00edn Costa)",
        "available_bike_stands": 12,
        "available_bikes": 3,
        "banking": true,
        "bike_stands": 15,
        "bonus": false,
        "contract_name": "santander",
        "name": "008_PLAZA DE ITALIA",
        "number": 8,
        "position": {
            "lat": 43.4718048257527,
            "lng": -3.78134613485541
        },
        "status": "OPEN"
    },
    {
        "address": "Avenida de la Magdalena (Aprox. Avda de la Reina Victoria)",
        "available_bike_stands": 6,
        "available_bikes": 9,
        "banking": true,
        "bike_stands": 15,
        "bonus": false,
        "contract_name": "santander",
        "name": "009_AVENIDA DE LA MAGDALENA",
        "number": 9,
        "position": {
            "lat": 43.4691494140035,
            "lng": -3.77327597557961
        },
        "status": "OPEN"
    },
    {
        "address": "Plaza de San Martin (Aprox. Avda de la Reina Victoria y Castelar)",
        "available_bike_stands": 11,
        "available_bikes": 4,
        "banking": true,
        "bike_stands": 15,
        "bonus": false,
        "contract_name": "santander",
        "name": "010_PLAZA DE SAN MARTIN",
        "number": 10,
        "position": {
            "lat": 43.4635521249485,
            "lng": -3.78800547922826
        },
        "status": "OPEN"
    },
    {
        "address": "Puerto Chico (Aprox.Paseo Pereda y San Mart\u00edn)",
        "available_bike_stands": 5,
        "available_bikes": 20,
        "banking": true,
        "bike_stands": 25,
        "bonus": false,
        "contract_name": "santander",
        "name": "011_PUERTO CHICO",
        "number": 11,
        "position": {
            "lat": 43.4621430815773,
            "lng": -3.79724144946775
        },
        "status": "OPEN"
    },
    {
        "address": "Calle Alta (Aprox. Mercado de M\u00e9xico)",
        "available_bike_stands": 7,
        "available_bikes": 8,
        "banking": true,
        "bike_stands": 15,
        "bonus": false,
        "contract_name": "santander",
        "name": "012_CALLE ALTA",
        "number": 12,
        "position": {
            "lat": 43.4579662522228,
            "lng": -3.82480124234961
        },
        "status": "OPEN"
    },
    {
        "address": "Calle de San Fernando (Aprox. Paseo del Alameda)",
        "available_bike_stands": 18,
        "available_bikes": 7,
        "banking": true,
        "bike_stands": 25,
        "bonus": false,
        "contract_name": "santander",
        "name": "013_CALLE DE SAN FERNANDO",
        "number": 13,
        "position": {
            "lat": 43.4607255432349,
            "lng": -3.81797824491875
        },
        "status": "OPEN"
    },
    {
        "address": "Atilano Rodriguez (aprox Paseo Pereda y San Fernando)",
        "available_bike_stands": 16,
        "available_bikes": 14,
        "banking": true,
        "bike_stands": 30,
        "bonus": false,
        "contract_name": "santander",
        "name": "014_ATILANO RODRIGUEZ",
        "number": 14,
        "position": {
            "lat": 43.4583838909468,
            "lng": -3.8104683913313
        },
        "status": "OPEN"
    },
    {
        "address": "Cerca de borna 7",
        "available_bike_stands": 9,
        "available_bikes": 6,
        "banking": true,
        "bike_stands": 15,
        "bonus": false,
        "contract_name": "santander",
        "name": "015_AV.DE LOS CASTROS 141",
        "number": 15,
        "position": {
            "lat": 43.465323,
            "lng": -3.825767
        },
        "status": "OPEN"
    },
    {
        "address": "Severo Ochoa",
        "available_bike_stands": 13,
        "available_bikes": 7,
        "banking": true,
        "bike_stands": 20,
        "bonus": false,
        "contract_name": "santander",
        "name": "016_SEVERO OCHOA",
        "number": 16,
        "position": {
            "lat": 43.4528130549523,
            "lng": -3.87139068298249
        },
        "status": "OPEN"
    },
    {
        "address": "Rucandial",
        "available_bike_stands": 17,
        "available_bikes": 3,
        "banking": true,
        "bike_stands": 20,
        "bonus": false,
        "contract_name": "santander",
        "name": "017_RUCANDIAL",
        "number": 17,
        "position": {
            "lat": 43.4548260614091,
            "lng": -3.86690066866145
        },
        "status": "OPEN"
    }
]