[
    {
        "address": "12 RUE DU POIDS DE L'HUILE",
        "available_bike_stands": 18,
        "available_bikes": 1,
        "banking": true,
        "bike_stands": 19,
        "bonus": false,
        "contract_name": "toulouse",
        "name": "00001 - POIDS DE L'HUILE",
        "number": 1,
        "position": {
            "lat": 43.60419,
            "lng": 1.445475
        },
        "status": "OPEN"
    },
    {
        "address": "21 RUE LAFAYETTE",
        "available_bike_stands": 22,
        "available_bikes": 1,
        "banking": true,
        "bike_stands": 24,
        "bonus": false,
        "contract_name": "toulouse",
        "name": "00002 - LAFAYETTE",
        "number": 2,
        "position": {
            "lat": 43.604885,
            "lng": 1.445306
        },
        "status": "OPEN"
    },
    {
        "address": "62 RUE DE LA POMME",
        "available_bike_stands": 16,
        "available_bikes": 1,
        "banking": true,
        "bike_stands": 18,
        "bonus": false,
        "contract_name": "toulouse",
        "name": "00003 - POMME",
        "number": 3,
        "position": {
            "lat": 43.603302,
            "lng": 1.445454
        },
        "status": "OPEN"
    },
    {
        "address": "15 RUE SAINTE-URSULE",
        "available_bike_stands": 8,
        "available_bikes": 12,
        "banking": true,
        "bike_stands": 20,
        "bonus": false,
        "contract_name": "toulouse",
        "name": "00004 - SAINTE-URSULE",
        "number": 4,
        "position": {
            "lat": 43.602671,
            "lng": 1.442031
        },
        "status": "OPEN"
    },
    {
        "address": "FACE AU 5 RUE RENE LEDUC",
        "available_bike_stands": 11,
        "available_bikes": 8,
        "banking": true,
        "bike_stands": 19,
        "bonus": false,
        "contract_name": "toulouse",
        "name": "00005 - LEDUC",
        "number": 5,
        "position": {
            "lat": 43.611386,
            "lng": 1.456729
        },
        "status": "OPEN"
    },
    {
        "address": "10 RUE DES LOIS",
        "available_bike_stands": 15,
        "available_bikes": 2,
        "banking": true,
        "bike_stands": 18,
        "bonus": false,
        "contract_name": "toulouse",
        "name": "00006 - LOIS",
        "number": 6,
        "position": {
            "lat": 43.605161,
            "lng": 1.442323
        },
        "status": "OPEN"
    },
    {
        "address": "6 RUE DU REMPART VILLENEUVE",
        "available_bike_stands": 20,
        "available_bikes": 4,
        "banking": true,
        "bike_stands": 25,
        "bonus": false,
        "contract_name": "toulouse",
        "name": "00007 - PLACE VICTOR HUGO",
        "number": 7,
        "position": {
            "lat": 43.605777,
            "lng": 1.446507
        },
        "status": "OPEN"
    },
    {
        "address": "19 RUE PAUL VIDAL",
        "available_bike_stands": 24,
        "available_bikes": 1,
        "banking": true,
        "bike_stands": 25,
        "bonus": false,
        "contract_name": "toulouse",
        "name": "00008 - ESPACE SAINT-GEORGES",
        "number": 8,
        "position": {
            "lat": 43.603205,
            "lng": 1.448118
        },
        "status": "OPEN"
    },
    {
        "address": "RUE ROQUEMAUREL / ANGLE 3 RUE ANNE FRANCK",
        "available_bike_stands": 14,
        "available_bikes": 4,
        "banking": true,
        "bike_stands": 18,
        "bonus": false,
        "contract_name": "toulouse",
        "name": "00009 - MAILLART - ROQUEMAUREL",
        "number": 9,
        "position": {
            "lat": 43.596069,
            "lng": 1.410505
        },
        "status": "OPEN"
    },
    {
        "address": "15 PL ETIENNE ESQUIROL",
        "available_bike_stands": 3,
        "available_bikes": 37,
        "banking": true,
        "bike_stands": 44,
        "bonus": false,
        "contract_name": "toulouse",
        "name": "00010 - PLACE ESQUIROL",
        "number": 10,
        "position": {
            "lat": 43.600348,
            "lng": 1.444659
        },
        "status": "OPEN"
    },
    {
        "address": "2 PL DE LA DAURADE",
        "available_bike_stands": 12,
        "available_bikes": 11,
        "banking": true,
        "bike_stands": 23,
        "bonus": false,
        "contract_name": "toulouse",
        "name": "00011 - PLACE DE LA DAURADE",
        "number": 11,
        "position": {
            "lat": 43.601888,
            "lng": 1.440368
        },
        "status": "OPEN"
    },
    {
        "address": "66 RUE PARGAMINIERES",
        "available_bike_stands": 5,
        "available_bikes": 6,
        "banking": true,
        "bike_stands": 11,
        "bonus": false,
        "contract_name": "toulouse",
        "name": "00012 - PARGAMINIERES",
        "number": 12,
        "position": {
            "lat": 43.60459,
            "lng": 1.44002
        },
        "status": "OPEN"
    },
    {
        "address": "1 RUE DE L ESQUILE",
        "available_bike_stands": 15,
        "available_bikes": 0,
        "banking": true,
        "bike_stands": 15,
        "bonus": false,
        "contract_name": "toulouse",
        "name": "00013 - LOIS - ESQUILE",
        "number": 13,
        "position": {
            "lat": 43.606146,
            "lng": 1.44135
        },
        "status": "OPEN"
    },
    {
        "address": "26 RUE DE PERIGORD",
        "available_bike_stands": 14,
        "available_bikes": 3,
        "banking": true,
        "bike_stands": 17,
        "bonus": false,
        "contract_name": "toulouse",
        "name": "00014 - PERIGORD",
        "number": 14,
        "position": {
            "lat": 43.60742,
            "lng": 1.444699
        },
        "status": "OPEN"
    },
    {
        "address": "FACE AU 5 PORT SAINT-SAUVEUR",
        "available_bike_stands": 19,
        "available_bikes": 0,
        "banking": true,
        "bike_stands": 20,
        "bonus": false,
        "contract_name": "toulouse",
        "name": "00015 - PONT MONTAUDRAN",
        "number": 15,
        "position": {
            "lat": 43.596411,
            "lng": 1.456584
        },
        "status": "OPEN"
    },
    {
        "address": "32 BD DE STRASBOURG",
        "available_bike_stands": 16,
        "available_bikes": 4,
        "banking": true,
        "bike_stands": 21,
        "bonus": false,
        "contract_name": "toulouse",
        "name": "00016 - STRASBOURG - BAYARD",
        "number": 16,
        "position": {
            "lat": 43.607847,
            "lng": 1.446666
        },
        "status": "OPEN"
    },
    {
        "address": "7 BD DE STRASBOURG",
        "available_bike_stands": 4,
        "available_bikes": 19,
        "banking": true,
        "bike_stands": 23,
        "bonus": false,
        "contract_name": "toulouse",
        "name": "00017 - STRASBOURG - SARDANE",
        "number": 17,
        "position": {
            "lat": 43.606499,
            "lng": 1.44769
        },
        "status": "OPEN"
    },
    {
        "address": "4 BD DE STRASBOURG",
        "available_bike_stands": 24,
        "available_bikes": 1,
        "banking": true,
        "bike_stands": 25,
        "bonus": false,
        "contract_name": "toulouse",
        "name": "00018 - STRASBOURG - JEAN JAURES",
        "number": 18,
        "position": {
            "lat": 43.606346,
            "lng": 1.44813
        },
        "status": "OPEN"
    },
    {
        "address": "1 RUE DES 7 TROUBADOURS",
        "available_bike_stands": 24,
        "available_bikes": 0,
        "banking": true,
        "bike_stands": 24,
        "bonus": false,
        "contract_name": "toulouse",
        "name": "00019 - CARNOT - SEPT TROUBADOURS",
        "number": 19,
        "position": {
            "lat": 43.605503,
            "lng": 1.449267
        },
        "status": "OPEN"
    },
    {
        "address": "69 BD LAZARE CARNOT",
        "available_bike_stands": 26,
        "available_bikes": 1,
        "banking": true,
        "bike_stands": 27,
        "bonus": false,
        "contract_name": "toulouse",
        "name": "00020 - CARNOT - TROIS JOURNEES",
        "number": 20,
        "position": {
            "lat": 43.604677,
            "lng": 1.449586
        },
        "status": "OPEN"
    },
    {
        "address": "63 BD LAZARE CARNOT",
        "available_bike_stands": 24,
        "available_bikes": 0,
        "banking": true,
        "bike_stands": 25,
        "bonus": false,
        "contract_name": "toulouse",
        "name": "00021 - CARNOT - LABEDA",
        "number": 21,
        "position": {
            "lat": 43.604079,
            "lng": 1.450158
        },
        "status": "OPEN"
    },
    {
        "address": "24 BD LAZARE CARNOT",
        "available_bike_stands": 20,
        "available_bikes": 0,
        "banking": true,
        "bike_stands": 20,
        "bonus": false,
        "contract_name": "toulouse",
        "name": "00022 - CARNOT - PLACE ROLAND",
        "number": 22,
        "position": {
            "lat": 43.602914,
            "lng": 1.451719
        },
        "status": "OPEN"
    },
    {
        "address": "6 BD LAZARE CARNOT",
        "available_bike_stands": 26,
        "available_bikes": 0,
        "banking": true,
        "bike_stands": 26,
        "bonus": false,
        "contract_name": "toulouse",
        "name": "00023 - COMBATTANTS",
        "number": 23,
        "position": {
            "lat": 43.601372,
            "lng": 1.452038
        },
        "status": "OPEN"
    },
    {
        "address": "14 PL SAINT-ETIENNE",
        "available_bike_stands": 18,
        "available_bikes": 4,
        "banking": true,
        "bike_stands": 22,
        "bonus": false,
        "contract_name": "toulouse",
        "name": "00024 - PLACE SAINT-ETIENNE",
        "number": 24,
        "position": {
            "lat": 43.600055,
            "lng": 1.449273
        },
        "status": "OPEN"
    },
    {
        "address": "1 RUE DES TOURNEURS",
        "available_bike_stands": 17,
        "available_bikes": 1,
        "banking": true,
        "bike_stands": 18,
        "bonus": false,
        "contract_name": "toulouse",
        "name": "00025 - PLACE ROUAIX",
        "number": 25,
        "position": {
            "lat": 43.599525,
            "lng": 1.445544
        },
        "status": "OPEN"
    },
    {
        "address": "9 RUE HENRY DE GORSSE",
        "available_bike_stands": 21,
        "available_bikes": 1,
        "banking": true,
        "bike_stands": 22,
        "bonus": false,
        "contract_name": "toulouse",
        "name": "00026 - DALBADE - DE GORSSE",
        "number": 26,
        "position": {
            "lat": 43.597941,
            "lng": 1.443002
        },
        "status": "OPEN"
    },
    {
        "address": "2 PLACE SAINT-PIERRE",
        "available_bike_stands": 19,
        "available_bikes": 3,
        "banking": true,
        "bike_stands": 22,
        "bonus": false,
        "contract_name": "toulouse",
        "name": "00028 - PLACE SAINT-PIERRE",
        "number": 28,
        "position": {
            "lat": 43.603228,
            "lng": 1.436034
        },
        "status": "OPEN"
    },
    {
        "address": "31 RUE VALADE",
        "available_bike_stands": 15,
        "available_bikes": 6,
        "banking": true,
        "bike_stands": 21,
        "bonus": false,
        "contract_name": "toulouse",
        "name": "00029 - VALADE",
        "number": 29,
        "position": {
            "lat": 43.605031,
            "lng": 1.437386
        },
        "status": "OPEN"
    },
    {
        "address": "40 PL ANATOLE FRANCE",
        "available_bike_stands": 21,
        "available_bikes": 4,
        "banking": true,
        "bike_stands": 25,
        "bonus": false,
        "contract_name": "toulouse",
        "name": "00030 - PLACE ANATOLE FRANCE",
        "number": 30,
        "position": {
            "lat": 43.606241,
            "lng": 1.438341
        },
        "status": "OPEN"
    },
    {
        "address": "7 RUE DES SALENQUES",
        "available_bike_stands": 16,
        "available_bikes": 4,
        "banking": true,
        "bike_stands": 20,
        "bonus": false,
        "contract_name": "toulouse",
        "name": "00031 - SALENQUES",
        "number": 31,
        "position": {
            "lat": 43.607369,
            "lng": 1.439453
        },
        "status": "OPEN"
    },
    {
        "address": "2 PLACE SAINT-SERNIN / ANGLE 2 RUE DES 3 RENARDS",
        "available_bike_stands": 11,
        "available_bikes": 1,
        "banking": true,
        "bike_stands": 12,
        "bonus": false,
        "contract_name": "toulouse",
        "name": "00032 - MUSEE SAINT-RAYMOND",
        "number": 32,
        "position": {
            "lat": 43.607608,
            "lng": 1.441304
        },
        "status": "OPEN"
    },
    {
        "address": "11 RUE HENRI BERALDI",
        "available_bike_stands": 14,
        "available_bikes": 1,
        "banking": true,
        "bike_stands": 15,
        "bonus": false,
        "contract_name": "toulouse",
        "name": "00033 - BERALDI",
        "number": 33,
        "position": {
            "lat": 43.608605,
            "lng": 1.4436
        },
        "status": "OPEN"
    },
    {
        "address": "15 RUE JOSEPH BOSC",
        "available_bike_stands": 9,
        "available_bikes": 13,
        "banking": true,
        "bike_stands": 22,
        "bonus": false,
        "contract_name": "toulouse",
        "name": "00034 - SAINT-LAZARE - BOSC",
        "number": 34,
        "position": {
            "lat": 43.609766,
            "lng": 1.445681
        },
        "status": "OPEN"
    },
    {
        "address": "1 RUE RAYMOND IV",
        "available_bike_stands": 22,
        "available_bikes": 3,
        "banking": true,
        "bike_stands": 25,
        "bonus": false,
        "contract_name": "toulouse",
        "name": "00035 - PLACE JEANNE D'ARC",
        "number": 35,
        "position": {
            "lat": 43.609602,
            "lng": 1.446881
        },
        "status": "OPEN"
    },
    {
        "address": "5 PL ROBERT SCHUMAN",
        "available_bike_stands": 18,
        "available_bikes": 1,
        "banking": true,
        "bike_stands": 19,
        "bonus": false,
        "contract_name": "toulouse",
        "name": "00036 - PLACE SCHUMAN",
        "number": 36,
        "position": {
            "lat": 43.609622,
            "lng": 1.449431
        },
        "status": "OPEN"
    },
    {
        "address": "53 RUE SAINTE-LUCIE",
        "available_bike_stands": 10,
        "available_bikes": 8,
        "banking": true,
        "bike_stands": 18,
        "bonus": false,
        "contract_name": "toulouse",
        "name": "00037 - SAINTE-LUCIE",
        "number": 37,
        "position": {
            "lat": 43.593516,
            "lng": 1.430039
        },
        "status": "OPEN"
    },
    {
        "address": "54 ALLEE JEAN JAURES",
        "available_bike_stands": 30,
        "available_bikes": 2,
        "banking": true,
        "bike_stands": 32,
        "bonus": false,
        "contract_name": "toulouse",
        "name": "00038 - JAURES - BACHELIER",
        "number": 38,
        "position": {
            "lat": 43.607222,
            "lng": 1.451244
        },
        "status": "OPEN"
    },
    {
        "address": "9 PL DE DAMLOUP",
        "available_bike_stands": 16,
        "available_bikes": 2,
        "banking": true,
        "bike_stands": 19,
        "bonus": false,
        "contract_name": "toulouse",
        "name": "00039 - PLACE DAMLOUP",
        "number": 39,
        "position": {
            "lat": 43.605855,
            "lng": 1.452805
        },
        "status": "OPEN"
    },
    {
        "address": "41 RUE DE LA COLOMBETTE",
        "available_bike_stands": 10,
        "available_bikes": 6,
        "banking": true,
        "bike_stands": 16,
        "bonus": false,
        "contract_name": "toulouse",
        "name": "00040 - COLOMBETTE",
        "number": 40,
        "position": {
            "lat": 43.604565,
            "lng": 1.453659
        },
        "status": "OPEN"
    },
    {
        "address": "1 RUE CHARLES CAMICHEL",
        "available_bike_stands": 18,
        "available_bikes": 3,
        "banking": true,
        "bike_stands": 21,
        "bonus": false,
        "contract_name": "toulouse",
        "name": "00041 - SAINT-AUBIN - CAMICHEL",
        "number": 41,
        "position": {
            "lat": 43.602708,
            "lng": 1.454367
        },
        "status": "OPEN"
    },
    {
        "address": "3 BD PR LEOPOLD ESCANDE / FACE ASSURANCE MALADIE HG",
        "available_bike_stands": 20,
        "available_bikes": 0,
        "banking": true,
        "bike_stands": 20,
        "bonus": false,
        "contract_name": "toulouse",
        "name": "00042 - DAURIAC - ESCANDE",
        "number": 42,
        "position": {
            "lat": 43.601607,
            "lng": 1.456158
        },
        "status": "OPEN"
    },
    {
        "address": "14 PL DOMINIQUE MARTIN DUPUY",
        "available_bike_stands": 21,
        "available_bikes": 1,
        "banking": true,
        "bike_stands": 22,
        "bonus": false,
        "contract_name": "toulouse",
        "name": "00043 - DUPUY",
        "number": 43,
        "position": {
            "lat": 43.600188,
            "lng": 1.454764
        },
        "status": "OPEN"
    },
    {
        "address": "1 ALL FORAIN FRANCOIS VERDIER",
        "available_bike_stands": 18,
        "available_bikes": 4,
        "banking": true,
        "bike_stands": 22,
        "bonus": false,
        "contract_name": "toulouse",
        "name": "00044 - PALAIS NIEL",
        "number": 44,
        "position": {
            "lat": 43.597825,
            "lng": 1.451609
        },
        "status": "OPEN"
    },
    {
        "address": "10 RUE THEODORE OZENNE",
        "available_bike_stands": 18,
        "available_bikes": 1,
        "banking": true,
        "bike_stands": 19,
        "bonus": false,
        "contract_name": "toulouse",
        "name": "00045 - OZENNE",
        "number": 45,
        "position": {
            "lat": 43.596314,
            "lng": 1.447081
        },
        "status": "OPEN"
    },
    {
        "address": "1 PL DES CARMES",
        "available_bike_stands": 17,
        "available_bikes": 3,
        "banking": true,
        "bike_stands": 20,
        "bonus": false,
        "contract_name": "toulouse",
        "name": "00046 - PLACE DES CARMES",
        "number": 46,
        "position": {
            "lat": 43.597364,
            "lng": 1.445314
        },
        "status": "OPEN"
    },
    {
        "address": "12 RUE DU LANGUEDOC",
        "available_bike_stands": 28,
        "available_bikes": 1,
        "banking": true,
        "bike_stands": 30,
        "bonus": false,
        "contract_name": "toulouse",
        "name": "00047 - NAZARETH - LANGUEDOC",
        "number": 47,
        "position": {
            "lat": 43.595247,
            "lng": 1.445416
        },
        "status": "OPEN"
    },
    {
        "address": "18 PL DU SALIN",
        "available_bike_stands": 30,
        "available_bikes": 2,
        "banking": true,
        "bike_stands": 32,
        "bonus": false,
        "contract_name": "toulouse",
        "name": "00048 - PLACE DU SALIN",
        "number": 48,
        "position": {
            "lat": 43.594461,
            "lng": 1.443822
        },
        "status": "OPEN"
    },
    {
        "address": "1 AV MAURICE HAURIOU",
        "available_bike_stands": 19,
        "available_bikes": 3,
        "banking": true,
        "bike_stands": 23,
        "bonus": false,
        "contract_name": "toulouse",
        "name": "00050 - GARONNETTE",
        "number": 50,
        "position": {
            "lat": 43.594359,
            "lng": 1.44095
        },
        "status": "OPEN"
    },
    {
        "address": "1 BD ARMAND DUPORTAL",
        "available_bike_stands": 17,
        "available_bikes": 1,
        "banking": true,
        "bike_stands": 18,
        "bonus": false,
        "contract_name": "toulouse",
        "name": "00051 - DUPORTAL - BRIENNE",
        "number": 51,
        "position": {
            "lat": 43.605618,
            "lng": 1.434502
        },
        "status": "OPEN"
    },
    {
        "address": "39 BD ARMAND DUPORTAL",
        "available_bike_stands": 21,
        "available_bikes": 0,
        "banking": true,
        "bike_stands": 21,
        "bonus": false,
        "contract_name": "toulouse",
        "name": "00052 - DUPORTAL - CITE ADMIN.",
        "number": 52,
        "position": {
            "lat": 43.608571,
            "lng": 1.434762
        },
        "status": "OPEN"
    },
    {
        "address": "PLACE SAINT JULIEN",
        "available_bike_stands": 25,
        "available_bikes": 0,
        "banking": true,
        "bike_stands": 25,
        "bonus": false,
        "contract_name": "toulouse",
        "name": "00053 - PLACE SAINT-JULIEN",
        "number": 53,
        "position": {
            "lat": 43.608639,
            "lng": 1.436965
        },
        "status": "OPEN"
    },
    {
        "address": "10 RUE DE LA CHAINE",
        "available_bike_stands": 5,
        "available_bikes": 12,
        "banking": true,
        "bike_stands": 17,
        "bonus": false,
        "contract_name": "toulouse",
        "name": "00054 - CHAINE",
        "number": 54,
        "position": {
            "lat": 43.608674,
            "lng": 1.439461
        },
        "status": "OPEN"
    },
    {
        "address": "2 RUE GATIEN ARNOULT",
        "available_bike_stands": 13,
        "available_bikes": 2,
        "banking": true,
        "bike_stands": 15,
        "bonus": false,
        "contract_name": "toulouse",
        "name": "00055 - SAINT-SERNIN - G. ARNOULT",
        "number": 55,
        "position": {
            "lat": 43.609022,
            "lng": 1.441105
        },
        "status": "OPEN"
    },
    {
        "address": "1 RUE MERLY",
        "available_bike_stands": 13,
        "available_bikes": 2,
        "banking": true,
        "bike_stands": 15,
        "bonus": false,
        "contract_name": "toulouse",
        "name": "00056 - SAINT-SERNIN - MERLY",
        "number": 56,
        "position": {
            "lat": 43.609191,
            "lng": 1.442749
        },
        "status": "OPEN"
    },
    {
        "address": "15 RUE MERLY",
        "available_bike_stands": 13,
        "available_bikes": 2,
        "banking": true,
        "bike_stands": 15,
        "bonus": false,
        "contract_name": "toulouse",
        "name": "00057 - MERLY - ARCOLE",
        "number": 57,
        "position": {
            "lat": 43.6103,
            "lng": 1.442975
        },
        "status": "OPEN"
    },
    {
        "address": "4 RUE DE LA CONCORDE",
        "available_bike_stands": 21,
        "available_bikes": 4,
        "banking": true,
        "bike_stands": 25,
        "bonus": false,
        "contract_name": "toulouse",
        "name": "00058 - CONCORDE - ARCOLE",
        "number": 58,
        "position": {
            "lat": 43.610663,
            "lng": 1.443637
        },
        "status": "OPEN"
    },
    {
        "address": "61 RUE DE LA CONCORDE",
        "available_bike_stands": 13,
        "available_bikes": 6,
        "banking": true,
        "bike_stands": 19,
        "bonus": false,
        "contract_name": "toulouse",
        "name": "00059 - CONCORDE",
        "number": 59,
        "position": {
            "lat": 43.613442,
            "lng": 1.446395
        },
        "status": "OPEN"
    },
    {
        "address": "32 PL ROQUELAINE",
        "available_bike_stands": 23,
        "available_bikes": 1,
        "banking": true,
        "bike_stands": 24,
        "bonus": false,
        "contract_name": "toulouse",
        "name": "00060 - ROQUELAINE",
        "number": 60,
        "position": {
            "lat": 43.612615,
            "lng": 1.448286
        },
        "status": "OPEN"
    },
    {
        "address": "12 BD DE BONREPOS",
        "available_bike_stands": 40,
        "available_bikes": 0,
        "banking": true,
        "bike_stands": 40,
        "bonus": false,
        "contract_name": "toulouse",
        "name": "00061 - BONREPOS",
        "number": 61,
        "position": {
            "lat": 43.611052,
            "lng": 1.452593
        },
        "status": "OPEN"
    },
    {
        "address": "81 ALLEE JEAN JAURES",
        "available_bike_stands": 24,
        "available_bikes": 0,
        "banking": true,
        "bike_stands": 24,
        "bonus": false,
        "contract_name": "toulouse",
        "name": "00062 - JAURES - STALINGRAD",
        "number": 62,
        "position": {
            "lat": 43.609216,
            "lng": 1.453549
        },
        "status": "OPEN"
    },
    {
        "address": "54 RUE DES SEPT TROUBADOURS",
        "available_bike_stands": 19,
        "available_bikes": 3,
        "banking": true,
        "bike_stands": 22,
        "bonus": false,
        "contract_name": "toulouse",
        "name": "00063 - PISCINE LEO LAGRANGE",
        "number": 63,
        "position": {
            "lat": 43.607468,
            "lng": 1.454329
        },
        "status": "OPEN"
    },
    {
        "address": "30 RUE GABRIEL PERI",
        "available_bike_stands": 21,
        "available_bikes": 3,
        "banking": true,
        "bike_stands": 24,
        "bonus": false,
        "contract_name": "toulouse",
        "name": "00064 - PERI - MERCADIER",
        "number": 64,
        "position": {
            "lat": 43.606208,
            "lng": 1.455005
        },
        "status": "OPEN"
    },
    {
        "address": "2 ALL FORAIN FRANCOIS VERDIER",
        "available_bike_stands": 20,
        "available_bikes": 7,
        "banking": true,
        "bike_stands": 27,
        "bonus": false,
        "contract_name": "toulouse",
        "name": "00065 - VERDIER - GRAND ROND",
        "number": 65,
        "position": {
            "lat": 43.596904,
            "lng": 1.452596
        },
        "status": "OPEN"
    },
    {
        "address": "RUE DU 8 MAI 1945 / FACE JARDIN ROYAL",
        "available_bike_stands": 22,
        "available_bikes": 1,
        "banking": true,
        "bike_stands": 23,
        "bonus": false,
        "contract_name": "toulouse",
        "name": "00066 - JARDIN ROYAL",
        "number": 66,
        "position": {
            "lat": 43.596419,
            "lng": 1.45104
        },
        "status": "OPEN"
    },
    {
        "address": "35 ALL JULES GUESDE",
        "available_bike_stands": 19,
        "available_bikes": 2,
        "banking": true,
        "bike_stands": 22,
        "bonus": false,
        "contract_name": "toulouse",
        "name": "00067 - MUSEUM",
        "number": 67,
        "position": {
            "lat": 43.594812,
            "lng": 1.449176
        },
        "status": "OPEN"
    },
    {
        "address": "1 BIS ALLEE JULES GUESDE",
        "available_bike_stands": 11,
        "available_bikes": 5,
        "banking": true,
        "bike_stands": 16,
        "bonus": false,
        "contract_name": "toulouse",
        "name": "00068 - METRO - PALAIS DE JUSTICE",
        "number": 68,
        "position": {
            "lat": 43.592782,
            "lng": 1.444726
        },
        "status": "OPEN"
    },
    {
        "address": "11 ALL PAUL FEUGA",
        "available_bike_stands": 18,
        "available_bikes": 0,
        "banking": true,
        "bike_stands": 18,
        "bonus": false,
        "contract_name": "toulouse",
        "name": "00069 - FEUGA",
        "number": 69,
        "position": {
            "lat": 43.592388,
            "lng": 1.442463
        },
        "status": "OPEN"
    },
    {
        "address": "5 PLACE DU FER A CHEVAL",
        "available_bike_stands": 15,
        "available_bikes": 3,
        "banking": true,
        "bike_stands": 18,
        "bonus": false,
        "contract_name": "toulouse",
        "name": "00070 - FER A CHEVAL",
        "number": 70,
        "position": {
            "lat": 43.592366,
            "lng": 1.434121
        },
        "status": "OPEN"
    },
    {
        "address": "3 RUE LAGANNE",
        "available_bike_stands": 15,
        "available_bikes": 7,
        "banking": true,
        "bike_stands": 22,
        "bonus": false,
        "contract_name": "toulouse",
        "name": "00071 - COURS DILLON",
        "number": 71,
        "position": {
            "lat": 43.593227,
            "lng": 1.435062
        },
        "status": "OPEN"
    },
    {
        "address": "23 ALL CHARLES DE FITTE",
        "available_bike_stands": 15,
        "available_bikes": 5,
        "banking": true,
        "bike_stands": 20,
        "bonus": false,
        "contract_name": "toulouse",
        "name": "00072 - FITTE - CUGNAUX",
        "number": 72,
        "position": {
            "lat": 43.59522,
            "lng": 1.432503
        },
        "status": "OPEN"
    },
    {
        "address": "40 ALLEE CHARLES DE FITTE",
        "available_bike_stands": 14,
        "available_bikes": 2,
        "banking": true,
        "bike_stands": 16,
        "bonus": false,
        "contract_name": "toulouse",
        "name": "00073 - FITTE - TEINTURIERS",
        "number": 73,
        "position": {
            "lat": 43.596294,
            "lng": 1.432158
        },
        "status": "OPEN"
    },
    {
        "address": "37 RUE LAGANNE",
        "available_bike_stands": 15,
        "available_bikes": 3,
        "banking": true,
        "bike_stands": 18,
        "bonus": false,
        "contract_name": "toulouse",
        "name": "00074 - LAGANNE - TEINTURIERS",
        "number": 74,
        "position": {
            "lat": 43.596667,
            "lng": 1.436229
        },
        "status": "OPEN"
    },
    {
        "address": "12 PLACE LAGANNE",
        "available_bike_stands": 2,
        "available_bikes": 18,
        "banking": true,
        "bike_stands": 21,
        "bonus": false,
        "contract_name": "toulouse",
        "name": "00075 - CHATEAU D'EAU",
        "number": 75,
        "position": {
            "lat": 43.59859,
            "lng": 1.436594
        },
        "status": "OPEN"
    },
    {
        "address": "2 PL INTERIEURE SAINT-CYPRIEN",
        "available_bike_stands": 11,
        "available_bikes": 1,
        "banking": true,
        "bike_stands": 13,
        "bonus": false,
        "contract_name": "toulouse",
        "name": "00077 - PLACE INT - SAINT-CYPRIEN",
        "number": 77,
        "position": {
            "lat": 43.59778,
            "lng": 1.431619
        },
        "status": "OPEN"
    },
    {
        "address": "14 PL INTERIEURE ST CYPRIEN",
        "available_bike_stands": 12,
        "available_bikes": 4,
        "banking": true,
        "bike_stands": 17,
        "bonus": false,
        "contract_name": "toulouse",
        "name": "00078 - PLACE INT - SAINT-CYPRIEN - DARRE",
        "number": 78,
        "position": {
            "lat": 43.598124,
            "lng": 1.431382
        },
        "status": "OPEN"
    },
    {
        "address": "1 PL LANGE",
        "available_bike_stands": 4,
        "available_bikes": 16,
        "banking": true,
        "bike_stands": 20,
        "bonus": false,
        "contract_name": "toulouse",
        "name": "00079 - PLACE LANGE",
        "number": 79,
        "position": {
            "lat": 43.601016,
            "lng": 1.434129
        },
        "status": "OPEN"
    },
    {
        "address": "89B ALLEE CHARLES DE FITTE",
        "available_bike_stands": 16,
        "available_bikes": 7,
        "banking": true,
        "bike_stands": 23,
        "bonus": false,
        "contract_name": "toulouse",
        "name": "00080 - FITTE - VARSI",
        "number": 80,
        "position": {
            "lat": 43.599637,
            "lng": 1.429338
        },
        "status": "OPEN"
    },
    {
        "address": "ALLEE CHARLES DE FITTE / FACE JARDIN RAYMOND VI",
        "available_bike_stands": 26,
        "available_bikes": 7,
        "banking": true,
        "bike_stands": 33,
        "bonus": false,
        "contract_name": "toulouse",
        "name": "00081 - JARDIN RAYMOND VI",
        "number": 81,
        "position": {
            "lat": 43.599797,
            "lng": 1.429521
        },
        "status": "OPEN"
    },
    {
        "address": "1 AV PAUL SEJOURNE",
        "available_bike_stands": 9,
        "available_bikes": 11,
        "banking": true,
        "bike_stands": 21,
        "bonus": false,
        "contract_name": "toulouse",
        "name": "00082 - SEJOURNE - CATALANS",
        "number": 82,
        "position": {
            "lat": 43.605804,
            "lng": 1.428054
        },
        "status": "OPEN"
    },
    {
        "address": "2 AV PAUL SEJOURNE",
        "available_bike_stands": 2,
        "available_bikes": 15,
        "banking": true,
        "bike_stands": 17,
        "bonus": false,
        "contract_name": "toulouse",
        "name": "00083 - SEJOURNE - AMIDONNIERS",
        "number": 83,
        "position": {
            "lat": 43.605687,
            "lng": 1.428225
        },
        "status": "OPEN"
    },
    {
        "address": "19T ALL DE BRIENNE",
        "available_bike_stands": 11,
        "available_bikes": 13,
        "banking": true,
        "bike_stands": 24,
        "bonus": false,
        "contract_name": "toulouse",
        "name": "00084 - BRIENNE - MANUFACTURE",
        "number": 84,
        "position": {
            "lat": 43.605381,
            "lng": 1.432485
        },
        "status": "OPEN"
    },
    {
        "address": "2 BD DU MARECHAL LECLERC",
        "available_bike_stands": 19,
        "available_bikes": 3,
        "banking": true,
        "bike_stands": 22,
        "bonus": false,
        "contract_name": "toulouse",
        "name": "00085 - MARECHAL LECLERC",
        "number": 85,
        "position": {
            "lat": 43.606847,
            "lng": 1.430615
        },
        "status": "OPEN"
    },
    {
        "address": "23 RUE DU BEARNAIS",
        "available_bike_stands": 18,
        "available_bikes": 2,
        "banking": true,
        "bike_stands": 20,
        "bonus": false,
        "contract_name": "toulouse",
        "name": "00086 - HERACLES - BEARNAIS",
        "number": 86,
        "position": {
            "lat": 43.608004,
            "lng": 1.428585
        },
        "status": "OPEN"
    },
    {
        "address": "47 BD LASCROSSES",
        "available_bike_stands": 10,
        "available_bikes": 15,
        "banking": true,
        "bike_stands": 25,
        "bonus": false,
        "contract_name": "toulouse",
        "name": "00087 - LASCROSSES - LECLERC",
        "number": 87,
        "position": {
            "lat": 43.609277,
            "lng": 1.432157
        },
        "status": "OPEN"
    },
    {
        "address": "17T BD LASCROSSES",
        "available_bike_stands": 15,
        "available_bikes": 10,
        "banking": true,
        "bike_stands": 25,
        "bonus": false,
        "contract_name": "toulouse",
        "name": "00088 - DUPORTAL - LASCROSSES",
        "number": 88,
        "position": {
            "lat": 43.61009,
            "lng": 1.434974
        },
        "status": "OPEN"
    },
    {
        "address": "1 ESP COMPANS-CAFFARELLI",
        "available_bike_stands": 4,
        "available_bikes": 18,
        "banking": true,
        "bike_stands": 22,
        "bonus": false,
        "contract_name": "toulouse",
        "name": "00089 - ESP COMPANS-CAFFARELLI",
        "number": 89,
        "position": {
            "lat": 43.611073,
            "lng": 1.436704
        },
        "status": "OPEN"
    },
    {
        "address": "3B BD LASCROSSES",
        "available_bike_stands": 24,
        "available_bikes": 1,
        "banking": true,
        "bike_stands": 25,
        "bonus": false,
        "contract_name": "toulouse",
        "name": "00090 - LASCROSSES - PLACE ARNAUD BERNARD",
        "number": 90,
        "position": {
            "lat": 43.611271,
            "lng": 1.438093
        },
        "status": "OPEN"
    },
    {
        "address": "48 BD D'ARCOLE",
        "available_bike_stands": 19,
        "available_bikes": 2,
        "banking": true,
        "bike_stands": 21,
        "bonus": false,
        "contract_name": "toulouse",
        "name": "00091 - ARCOLE - BALANCE",
        "number": 91,
        "position": {
            "lat": 43.611556,
            "lng": 1.439662
        },
        "status": "OPEN"
    },
    {
        "address": "31 RUE DES CHALETS",
        "available_bike_stands": 14,
        "available_bikes": 1,
        "banking": true,
        "bike_stands": 15,
        "bonus": false,
        "contract_name": "toulouse",
        "name": "00092 - CHALETS",
        "number": 92,
        "position": {
            "lat": 43.613149,
            "lng": 1.441326
        },
        "status": "OPEN"
    },
    {
        "address": "57 RUE DU PRINTEMPS",
        "available_bike_stands": 10,
        "available_bikes": 7,
        "banking": true,
        "bike_stands": 17,
        "bonus": false,
        "contract_name": "toulouse",
        "name": "00093 - PRINTEMPS",
        "number": 93,
        "position": {
            "lat": 43.614574,
            "lng": 1.443571
        },
        "status": "OPEN"
    },
    {
        "address": "76 BD DE LA GARE",
        "available_bike_stands": 25,
        "available_bikes": 0,
        "banking": true,
        "bike_stands": 25,
        "bonus": false,
        "contract_name": "toulouse",
        "name": "00094 - SEMARD GARE ROUTIERE",
        "number": 94,
        "position": {
            "lat": 43.614083,
            "lng": 1.451158
        },
        "status": "OPEN"
    },
    {
        "address": "4 AV DU CH\u00c2TEAU D'EAU",
        "available_bike_stands": 9,
        "available_bikes": 13,
        "banking": true,
        "bike_stands": 22,
        "bonus": false,
        "contract_name": "toulouse",
        "name": "00095 - THEATRE GARONNE",
        "number": 95,
        "position": {
            "lat": 43.602426,
            "lng": 1.425347
        },
        "status": "OPEN"
    },
    {
        "address": "50 RUE DU GENERAL COMPANS",
        "available_bike_stands": 25,
        "available_bikes": 0,
        "banking": true,
        "bike_stands": 25,
        "bonus": false,
        "contract_name": "toulouse",
        "name": "00096 - MEDIATHEQUE",
        "number": 96,
        "position": {
            "lat": 43.609757,
            "lng": 1.455212
        },
        "status": "OPEN"
    },
    {
        "address": "FACE AU 66 RUE RAYMOND IV",
        "available_bike_stands": 20,
        "available_bikes": 1,
        "banking": true,
        "bike_stands": 21,
        "bonus": false,
        "contract_name": "toulouse",
        "name": "00097 - RAYMOND IV",
        "number": 97,
        "position": {
            "lat": 43.612475,
            "lng": 1.451558
        },
        "status": "OPEN"
    },
    {
        "address": "80 ALL DES DEMOISELLES",
        "available_bike_stands": 17,
        "available_bikes": 5,
        "banking": true,
        "bike_stands": 22,
        "bonus": false,
        "contract_name": "toulouse",
        "name": "00098 - PONT DES DEMOISELLES",
        "number": 98,
        "position": {
            "lat": 43.58771,
            "lng": 1.459838
        },
        "status": "OPEN"
    },
    {
        "address": "7 RUE DU REMPART ST ETIENNE",
        "available_bike_stands": 16,
        "available_bikes": 0,
        "banking": true,
        "bike_stands": 16,
        "bonus": false,
        "contract_name": "toulouse",
        "name": "00099 - REMPART SAINT-ETIENNE",
        "number": 99,
        "position": {
            "lat": 43.6008250248339,
            "lng": 1.45065484986121
        },
        "status": "OPEN"
    },
    {
        "address": "16 ALL PAUL SABATIER",
        "available_bike_stands": 19,
        "available_bikes": 0,
        "banking": true,
        "bike_stands": 20,
        "bonus": false,
        "contract_name": "toulouse",
        "name": "00100 - PORT SAINT-SAUVEUR",
        "number": 100,
        "position": {
            "lat": 43.596652,
            "lng": 1.45564
        },
        "status": "OPEN"
    },
    {
        "address": "5 PORT SAINT-SAUVEUR / ESPLANADE DE LA CAPITAINERIE",
        "available_bike_stands": 12,
        "available_bikes": 7,
        "banking": true,
        "bike_stands": 20,
        "bonus": false,
        "contract_name": "toulouse",
        "name": "00101 - CAPT PORT SAINT-SAUVEUR",
        "number": 101,
        "position": {
            "lat": 43.594493,
            "lng": 1.45588
        },
        "status": "OPEN"
    },
    {
        "address": "18 ALLEE FREDERIC MISTRAL",
        "available_bike_stands": 17,
        "available_bikes": 2,
        "banking": true,
        "bike_stands": 19,
        "bonus": false,
        "contract_name": "toulouse",
        "name": "00102 -  MISTRAL - FLEURANCE",
        "number": 102,
        "position": {
            "lat": 43.593567,
            "lng": 1.453066
        },
        "status": "OPEN"
    },
    {
        "address": "139 GRANDE RUE SAINT-MICHEL",
        "available_bike_stands": 16,
        "available_bikes": 4,
        "banking": true,
        "bike_stands": 20,
        "bonus": false,
        "contract_name": "toulouse",
        "name": "00103 - SAINT-MICHEL - SAINTE-CATHERINE",
        "number": 103,
        "position": {
            "lat": 43.590655,
            "lng": 1.445247
        },
        "status": "OPEN"
    },
    {
        "address": "219 AV DE MURET",
        "available_bike_stands": 1,
        "available_bikes": 17,
        "banking": true,
        "bike_stands": 18,
        "bonus": false,
        "contract_name": "toulouse",
        "name": "00104 - MURET - RAPAS",
        "number": 104,
        "position": {
            "lat": 43.589126,
            "lng": 1.431449
        },
        "status": "OPEN"
    },
    {
        "address": "12  AV  ETIENNE  BILLIERES",
        "available_bike_stands": 16,
        "available_bikes": 2,
        "banking": true,
        "bike_stands": 19,
        "bonus": false,
        "contract_name": "toulouse",
        "name": "00105 - BILLIERE - CHAMPETRE",
        "number": 105,
        "position": {
            "lat": 43.597539,
            "lng": 1.428891
        },
        "status": "OPEN"
    },
    {
        "address": "99 ALL DE BRIENNE",
        "available_bike_stands": 4,
        "available_bikes": 17,
        "banking": true,
        "bike_stands": 21,
        "bonus": false,
        "contract_name": "toulouse",
        "name": "00106 - BRIENNE - PASSERELLE",
        "number": 106,
        "position": {
            "lat": 43.608424,
            "lng": 1.423848
        },
        "status": "OPEN"
    },
    {
        "address": "1 RUE DE SEBASTOPOL",
        "available_bike_stands": 6,
        "available_bikes": 21,
        "banking": true,
        "bike_stands": 27,
        "bonus": false,
        "contract_name": "toulouse",
        "name": "00107 - SEBASTOPOL",
        "number": 107,
        "position": {
            "lat": 43.60962,
            "lng": 1.430401
        },
        "status": "OPEN"
    },
    {
        "address": "2 BD SEBASTOPOL",
        "available_bike_stands": 0,
        "available_bikes": 20,
        "banking": true,
        "bike_stands": 20,
        "bonus": false,
        "contract_name": "toulouse",
        "name": "00108 - SEBASTOPOL - RITAY",
        "number": 108,
        "position": {
            "lat": 43.612279,
            "lng": 1.428827
        },
        "status": "OPEN"
    },
    {
        "address": "1 BD DE LA MARQUETTE",
        "available_bike_stands": 21,
        "available_bikes": 4,
        "banking": true,
        "bike_stands": 25,
        "bonus": false,
        "contract_name": "toulouse",
        "name": "00109 - METRO - CANAL DU MIDI",
        "number": 109,
        "position": {
            "lat": 43.615275,
            "lng": 1.434944
        },
        "status": "OPEN"
    },
    {
        "address": "16 RUE ALEXANDRE CABANEL",
        "available_bike_stands": 16,
        "available_bikes": 2,
        "banking": true,
        "bike_stands": 18,
        "bonus": false,
        "contract_name": "toulouse",
        "name": "00110 - CABANEL - SERRES",
        "number": 110,
        "position": {
            "lat": 43.614227,
            "lng": 1.437999
        },
        "status": "OPEN"
    },
    {
        "address": "38B BD DES MINIMES",
        "available_bike_stands": 23,
        "available_bikes": 3,
        "banking": true,
        "bike_stands": 27,
        "bonus": false,
        "contract_name": "toulouse",
        "name": "00111 - MINIMES - PASSERELLE",
        "number": 111,
        "position": {
            "lat": 43.615273,
            "lng": 1.442937
        },
        "status": "OPEN"
    },
    {
        "address": "47 ALLEE BRANLY",
        "available_bike_stands": 7,
        "available_bikes": 13,
        "banking": true,
        "bike_stands": 20,
        "bonus": false,
        "contract_name": "toulouse",
        "name": "00112 - PLACE RUSSELL - BRANLY",
        "number": 112,
        "position": {
            "lat": 43.585409,
            "lng": 1.453014
        },
        "status": "OPEN"
    },
    {
        "address": "FACE 58 RUE DUMERIL",
        "available_bike_stands": 14,
        "available_bikes": 6,
        "banking": true,
        "bike_stands": 20,
        "bonus": false,
        "contract_name": "toulouse",
        "name": "00113 - DUMERIL - LAMARCK",
        "number": 113,
        "position": {
            "lat": 43.592349,
            "lng": 1.449015
        },
        "status": "OPEN"
    },
    {
        "address": "8 BD MONPLAISIR",
        "available_bike_stands": 13,
        "available_bikes": 6,
        "banking": true,
        "bike_stands": 20,
        "bonus": false,
        "contract_name": "toulouse",
        "name": "00114 - MONTPLAISIR - CANAL",
        "number": 114,
        "position": {
            "lat": 43.592438,
            "lng": 1.457925
        },
        "status": "OPEN"
    },
    {
        "address": "8 ALL DES DEMOISELLES",
        "available_bike_stands": 13,
        "available_bikes": 5,
        "banking": true,
        "bike_stands": 18,
        "bonus": false,
        "contract_name": "toulouse",
        "name": "00115 - DEMOISELLES - MISTRAL",
        "number": 115,
        "position": {
            "lat": 43.590692,
            "lng": 1.453224
        },
        "status": "OPEN"
    },
    {
        "address": "50 GRANDE RUE SAINT-MICHEL",
        "available_bike_stands": 13,
        "available_bikes": 2,
        "banking": true,
        "bike_stands": 15,
        "bonus": false,
        "contract_name": "toulouse",
        "name": "00116 - SAINT-MICHEL - NOTRE DAME",
        "number": 116,
        "position": {
            "lat": 43.588178,
            "lng": 1.446446
        },
        "status": "OPEN"
    },
    {
        "address": "39 AVENUE ETIENNE BILLIERES",
        "available_bike_stands": 16,
        "available_bikes": 2,
        "banking": true,
        "bike_stands": 20,
        "bonus": false,
        "contract_name": "toulouse",
        "name": "00117 - BILLIERES - POSTE",
        "number": 117,
        "position": {
            "lat": 43.596889,
            "lng": 1.426109
        },
        "status": "OPEN"
    },
    {
        "address": "PLACE DU BUSCA / FACE ECOLE JEAN JAURES",
        "available_bike_stands": 4,
        "available_bikes": 13,
        "banking": true,
        "bike_stands": 17,
        "bonus": false,
        "contract_name": "toulouse",
        "name": "00118 - PLACE DU BUSCA",
        "number": 118,
        "position": {
            "lat": 43.588588,
            "lng": 1.451003
        },
        "status": "OPEN"
    },
    {
        "address": "129 ALL DE BRIENNE",
        "available_bike_stands": 10,
        "available_bikes": 14,
        "banking": true,
        "bike_stands": 24,
        "bonus": false,
        "contract_name": "toulouse",
        "name": "00119 - BRIENNE - CHAPOU",
        "number": 119,
        "position": {
            "lat": 43.610005,
            "lng": 1.419568
        },
        "status": "OPEN"
    },
    {
        "address": "152 ALL DE BARCELONE",
        "available_bike_stands": 2,
        "available_bikes": 16,
        "banking": true,
        "bike_stands": 18,
        "bonus": false,
        "contract_name": "toulouse",
        "name": "00120 - BARCELONE - PONTS JUMEAUX",
        "number": 120,
        "position": {
            "lat": 43.610343,
            "lng": 1.420407
        },
        "status": "OPEN"
    },
    {
        "address": "33 AV HONORE SERRES",
        "available_bike_stands": 17,
        "available_bikes": 0,
        "banking": true,
        "bike_stands": 17,
        "bonus": false,
        "contract_name": "toulouse",
        "name": "00121 - SERRES - A.BERNARD",
        "number": 121,
        "position": {
            "lat": 43.612627,
            "lng": 1.438268
        },
        "status": "OPEN"
    },
    {
        "address": "57 BD DE L EMBOUCHURE",
        "available_bike_stands": 13,
        "available_bikes": 6,
        "banking": true,
        "bike_stands": 19,
        "bonus": false,
        "contract_name": "toulouse",
        "name": "00122 - PASSERELLE HAEDENS",
        "number": 122,
        "position": {
            "lat": 43.613504,
            "lng": 1.430339
        },
        "status": "OPEN"
    },
    {
        "address": "1 RUE DE CHAUSSAS",
        "available_bike_stands": 17,
        "available_bikes": 6,
        "banking": true,
        "bike_stands": 23,
        "bonus": false,
        "contract_name": "toulouse",
        "name": "00123 - CHAUSSAS - EMBOUCHURE",
        "number": 123,
        "position": {
            "lat": 43.61497,
            "lng": 1.432909
        },
        "status": "OPEN"
    },
    {
        "address": "27 AV DES MINIMES",
        "available_bike_stands": 15,
        "available_bikes": 4,
        "banking": true,
        "bike_stands": 19,
        "bonus": false,
        "contract_name": "toulouse",
        "name": "00124 - EGLISE DES MINIMES",
        "number": 124,
        "position": {
            "lat": 43.618287,
            "lng": 1.436857
        },
        "status": "OPEN"
    },
    {
        "address": "FACE AU 2 BARRIERE DE PARIS",
        "available_bike_stands": 12,
        "available_bikes": 13,
        "banking": true,
        "bike_stands": 25,
        "bonus": false,
        "contract_name": "toulouse",
        "name": "00125 - BARRIERE DE PARIS",
        "number": 125,
        "position": {
            "lat": 43.627017,
            "lng": 1.434129
        },
        "status": "OPEN"
    },
    {
        "address": "18 RUE BONNEFOY",
        "available_bike_stands": 17,
        "available_bikes": 5,
        "banking": true,
        "bike_stands": 22,
        "bonus": true,
        "contract_name": "toulouse",
        "name": "00126 - ECOLE BONNEFOY",
        "number": 126,
        "position": {
            "lat": 43.616939,
            "lng": 1.454243
        },
        "status": "OPEN"
    },
    {
        "address": "1 RUE BEGUE",
        "available_bike_stands": 5,
        "available_bikes": 10,
        "banking": true,
        "bike_stands": 15,
        "bonus": false,
        "contract_name": "toulouse",
        "name": "00127 - BEGUE - DEMOISELLES",
        "number": 127,
        "position": {
            "lat": 43.589802,
            "lng": 1.455967
        },
        "status": "OPEN"
    },
    {
        "address": "18 B GRANDE RUE ST MICHEL",
        "available_bike_stands": 19,
        "available_bikes": 4,
        "banking": true,
        "bike_stands": 23,
        "bonus": false,
        "contract_name": "toulouse",
        "name": "00128 - PRISON SAINT-MICHEL",
        "number": 128,
        "position": {
            "lat": 43.58585,
            "lng": 1.447374
        },
        "status": "OPEN"
    },
    {
        "address": "2 BD DEODAT DE SEVERAC",
        "available_bike_stands": 7,
        "available_bikes": 8,
        "banking": true,
        "bike_stands": 16,
        "bonus": false,
        "contract_name": "toulouse",
        "name": "00129 - CROIX DE PIERRE",
        "number": 129,
        "position": {
            "lat": 43.585732,
            "lng": 1.427853
        },
        "status": "OPEN"
    },
    {
        "address": "66 TER AV ETIENNE BILLIERES",
        "available_bike_stands": 12,
        "available_bikes": 3,
        "banking": true,
        "bike_stands": 15,
        "bonus": false,
        "contract_name": "toulouse",
        "name": "00130 - BILLIERES - PATTE D OIE",
        "number": 130,
        "position": {
            "lat": 43.596716,
            "lng": 1.424382
        },
        "status": "OPEN"
    },
    {
        "address": "15 RUE PAUL BERNIES",
        "available_bike_stands": 2,
        "available_bikes": 17,
        "banking": true,
        "bike_stands": 19,
        "bonus": false,
        "contract_name": "toulouse",
        "name": "00131 - BERNIES - ROUTE DE BLAGNAC",
        "number": 131,
        "position": {
            "lat": 43.611584,
            "lng": 1.414669
        },
        "status": "OPEN"
    },
    {
        "address": "101 AVENUES DES MINIMES",
        "available_bike_stands": 8,
        "available_bikes": 11,
        "banking": true,
        "bike_stands": 19,
        "bonus": false,
        "contract_name": "toulouse",
        "name": "00132 - MINIMES - BAQUE",
        "number": 132,
        "position": {
            "lat": 43.622966,
            "lng": 1.434449
        },
        "status": "OPEN"
    },
    {
        "address": "71 AV DES MINIMES",
        "available_bike_stands": 11,
        "available_bikes": 11,
        "banking": true,
        "bike_stands": 22,
        "bonus": false,
        "contract_name": "toulouse",
        "name": "00133 - MARCHE AUX COCHONS",
        "number": 133,
        "position": {
            "lat": 43.620693,
            "lng": 1.435612
        },
        "status": "OPEN"
    },
    {
        "address": "8 ALLEE DE L'EGLISE BONNEFOY",
        "available_bike_stands": 10,
        "available_bikes": 8,
        "banking": true,
        "bike_stands": 19,
        "bonus": true,
        "contract_name": "toulouse",
        "name": "00134 - EGLISE BONNEFOY",
        "number": 134,
        "position": {
            "lat": 43.619031,
            "lng": 1.456759
        },
        "status": "OPEN"
    },
    {
        "address": "179 RUE DU FAUBOURG BONNEFOY",
        "available_bike_stands": 18,
        "available_bikes": 0,
        "banking": true,
        "bike_stands": 18,
        "bonus": true,
        "contract_name": "toulouse",
        "name": "00135 - BONNEFOY - LEMAITRE",
        "number": 135,
        "position": {
            "lat": 43.622963,
            "lng": 1.458647
        },
        "status": "OPEN"
    },
    {
        "address": "FACE 175 RUE DES FONTAINES",
        "available_bike_stands": 6,
        "available_bikes": 8,
        "banking": true,
        "bike_stands": 15,
        "bonus": false,
        "contract_name": "toulouse",
        "name": "00136 - FONTAINES",
        "number": 136,
        "position": {
            "lat": 43.60202,
            "lng": 1.414772
        },
        "status": "OPEN"
    },
    {
        "address": "68 BD JEAN BRUNHES FACE AU 53",
        "available_bike_stands": 6,
        "available_bikes": 9,
        "banking": true,
        "bike_stands": 15,
        "bonus": false,
        "contract_name": "toulouse",
        "name": "00137 - BRUNHES - FONTAINES",
        "number": 137,
        "position": {
            "lat": 43.600473,
            "lng": 1.420165
        },
        "status": "OPEN"
    },
    {
        "address": "3 BD JEAN BRUNHES",
        "available_bike_stands": 20,
        "available_bikes": 0,
        "banking": true,
        "bike_stands": 20,
        "bonus": false,
        "contract_name": "toulouse",
        "name": "00138 - BARRIERE DE BAYONNE",
        "number": 138,
        "position": {
            "lat": 43.597908,
            "lng": 1.420144
        },
        "status": "OPEN"
    },
    {
        "address": "39 BIS AV DE LOMBEZ",
        "available_bike_stands": 7,
        "available_bikes": 18,
        "banking": true,
        "bike_stands": 25,
        "bonus": false,
        "contract_name": "toulouse",
        "name": "00139 - BARRIERE DE LOMBEZ",
        "number": 139,
        "position": {
            "lat": 43.595503,
            "lng": 1.418503
        },
        "status": "OPEN"
    },
    {
        "address": "PLACE EMILE MALE",
        "available_bike_stands": 9,
        "available_bikes": 20,
        "banking": true,
        "bike_stands": 29,
        "bonus": false,
        "contract_name": "toulouse",
        "name": "00140 - PLACE EMILE MALE",
        "number": 140,
        "position": {
            "lat": 43.591661,
            "lng": 1.418768
        },
        "status": "OPEN"
    },
    {
        "address": "237 RUE HENRI DESBALS",
        "available_bike_stands": 0,
        "available_bikes": 17,
        "banking": true,
        "bike_stands": 18,
        "bonus": false,
        "contract_name": "toulouse",
        "name": "00141 - FONTAINE LESTANG",
        "number": 141,
        "position": {
            "lat": 43.587389,
            "lng": 1.417918
        },
        "status": "OPEN"
    },
    {
        "address": "FACE AU 65 BD DEODAT DE SEVERAC",
        "available_bike_stands": 6,
        "available_bikes": 13,
        "banking": true,
        "bike_stands": 20,
        "bonus": false,
        "contract_name": "toulouse",
        "name": "00142 - LYCEE DEODAT DE SEVERAC",
        "number": 142,
        "position": {
            "lat": 43.588046,
            "lng": 1.42436
        },
        "status": "OPEN"
    },
    {
        "address": "PL GENEVIEVE ANTHONIOZ DE GAULLE / ANGLE RUE HENRY DESBALS",
        "available_bike_stands": 2,
        "available_bikes": 17,
        "banking": true,
        "bike_stands": 20,
        "bonus": false,
        "contract_name": "toulouse",
        "name": "00143 - DESBALS - SAINTONGE",
        "number": 143,
        "position": {
            "lat": 43.581384,
            "lng": 1.413607
        },
        "status": "OPEN"
    },
    {
        "address": "62 BD DE SUISSE",
        "available_bike_stands": 11,
        "available_bikes": 11,
        "banking": true,
        "bike_stands": 22,
        "bonus": false,
        "contract_name": "toulouse",
        "name": "00144 - SUISSE - LAUSANE",
        "number": 144,
        "position": {
            "lat": 43.615988,
            "lng": 1.42163
        },
        "status": "OPEN"
    },
    {
        "address": "29 RUE ROLAND GARROS",
        "available_bike_stands": 13,
        "available_bikes": 7,
        "banking": true,
        "bike_stands": 20,
        "bonus": false,
        "contract_name": "toulouse",
        "name": "00145 - GOUNOD - GARROS",
        "number": 145,
        "position": {
            "lat": 43.613881,
            "lng": 1.424953
        },
        "status": "OPEN"
    },
    {
        "address": "57 CHEMIN DU SANG DE SERP",
        "available_bike_stands": 3,
        "available_bikes": 17,
        "banking": true,
        "bike_stands": 20,
        "bonus": false,
        "contract_name": "toulouse",
        "name": "00146 - SANG DE SERP - DAGNAUX",
        "number": 146,
        "position": {
            "lat": 43.61567,
            "lng": 1.428308
        },
        "status": "OPEN"
    },
    {
        "address": "96 RUE DE CHAUSSAS",
        "available_bike_stands": 1,
        "available_bikes": 18,
        "banking": true,
        "bike_stands": 20,
        "bonus": false,
        "contract_name": "toulouse",
        "name": "00147 - CHAUSSAS - DAUDET",
        "number": 147,
        "position": {
            "lat": 43.619704,
            "lng": 1.429176
        },
        "status": "OPEN"
    },
    {
        "address": "5 AV DE COLLIGNON",
        "available_bike_stands": 16,
        "available_bikes": 3,
        "banking": true,
        "bike_stands": 19,
        "bonus": false,
        "contract_name": "toulouse",
        "name": "00148 - COLLIGNON",
        "number": 148,
        "position": {
            "lat": 43.61657,
            "lng": 1.444112
        },
        "status": "OPEN"
    },
    {
        "address": "FACE 2 CHEMIN DU RAISIN",
        "available_bike_stands": 6,
        "available_bikes": 16,
        "banking": true,
        "bike_stands": 22,
        "bonus": false,
        "contract_name": "toulouse",
        "name": "00149 - RAISIN - MINIMES",
        "number": 149,
        "position": {
            "lat": 43.61539,
            "lng": 1.448573
        },
        "status": "OPEN"
    },
    {
        "address": "78 BD PIERRE ET MARIE CURIE",
        "available_bike_stands": 5,
        "available_bikes": 13,
        "banking": true,
        "bike_stands": 18,
        "bonus": false,
        "contract_name": "toulouse",
        "name": "00150 - CURIE - CAMPISTRON",
        "number": 150,
        "position": {
            "lat": 43.62563,
            "lng": 1.439513
        },
        "status": "OPEN"
    },
    {
        "address": "27 BD PIERRE ET MARIE CURIE",
        "available_bike_stands": 11,
        "available_bikes": 13,
        "banking": true,
        "bike_stands": 24,
        "bonus": false,
        "contract_name": "toulouse",
        "name": "00151 - CURIE - NEGRENEYS",
        "number": 151,
        "position": {
            "lat": 43.624514,
            "lng": 1.443326
        },
        "status": "OPEN"
    },
    {
        "address": "10 AV DES MAZADES",
        "available_bike_stands": 3,
        "available_bikes": 17,
        "banking": true,
        "bike_stands": 20,
        "bonus": false,
        "contract_name": "toulouse",
        "name": "00152 - MAZADES",
        "number": 152,
        "position": {
            "lat": 43.624114,
            "lng": 1.438463
        },
        "status": "OPEN"
    },
    {
        "address": "12 AV BOURGES MAUNOURY",
        "available_bike_stands": 2,
        "available_bikes": 16,
        "banking": true,
        "bike_stands": 18,
        "bonus": false,
        "contract_name": "toulouse",
        "name": "00153 - BOURGES MAUNOURY",
        "number": 153,
        "position": {
            "lat": 43.628672,
            "lng": 1.448469
        },
        "status": "OPEN"
    },
    {
        "address": "50 M AVANT 4 RUE DES GALLOIS",
        "available_bike_stands": 7,
        "available_bikes": 12,
        "banking": true,
        "bike_stands": 20,
        "bonus": false,
        "contract_name": "toulouse",
        "name": "00154 - GALLOIS",
        "number": 154,
        "position": {
            "lat": 43.589928,
            "lng": 1.441706
        },
        "status": "OPEN"
    },
    {
        "address": "34 BD DES RECOLLETS",
        "available_bike_stands": 12,
        "available_bikes": 8,
        "banking": true,
        "bike_stands": 20,
        "bonus": false,
        "contract_name": "toulouse",
        "name": "00155 - RECOLLETS",
        "number": 155,
        "position": {
            "lat": 43.583787,
            "lng": 1.443299
        },
        "status": "OPEN"
    },
    {
        "address": "38 AV JEAN MOULIN FACE DEBOUCHE RUE DE CANNES",
        "available_bike_stands": 3,
        "available_bikes": 14,
        "banking": true,
        "bike_stands": 18,
        "bonus": false,
        "contract_name": "toulouse",
        "name": "00156 - METRO EMPALOT",
        "number": 156,
        "position": {
            "lat": 43.579666,
            "lng": 1.44184
        },
        "status": "OPEN"
    },
    {
        "address": "16 AV DE L'U.R.S.S",
        "available_bike_stands": 5,
        "available_bikes": 13,
        "banking": true,
        "bike_stands": 19,
        "bonus": false,
        "contract_name": "toulouse",
        "name": "00157 - URSS - PEYROUSET",
        "number": 157,
        "position": {
            "lat": 43.58295,
            "lng": 1.448578
        },
        "status": "OPEN"
    },
    {
        "address": "57 AV DE L'URSS",
        "available_bike_stands": 8,
        "available_bikes": 12,
        "banking": true,
        "bike_stands": 20,
        "bonus": false,
        "contract_name": "toulouse",
        "name": "00158 - URSS - SAINT-THOMAS D'AQUIN",
        "number": 158,
        "position": {
            "lat": 43.580915,
            "lng": 1.449198
        },
        "status": "OPEN"
    },
    {
        "address": "96 AV JULES JULIEN",
        "available_bike_stands": 3,
        "available_bikes": 16,
        "banking": true,
        "bike_stands": 20,
        "bonus": false,
        "contract_name": "toulouse",
        "name": "00159 - U.R.S.S DEVIC",
        "number": 159,
        "position": {
            "lat": 43.578572,
            "lng": 1.450234
        },
        "status": "OPEN"
    },
    {
        "address": "21 AV DES ECOLES JULES JULIEN",
        "available_bike_stands": 0,
        "available_bikes": 17,
        "banking": true,
        "bike_stands": 17,
        "bonus": false,
        "contract_name": "toulouse",
        "name": "00160 - THEATRE JULES JULIEN",
        "number": 160,
        "position": {
            "lat": 43.57337,
            "lng": 1.452405
        },
        "status": "OPEN"
    },
    {
        "address": "35 AV DE RANGUEIL",
        "available_bike_stands": 3,
        "available_bikes": 12,
        "banking": true,
        "bike_stands": 15,
        "bonus": false,
        "contract_name": "toulouse",
        "name": "00161 - RANGUEIL - BEDOUCE",
        "number": 161,
        "position": {
            "lat": 43.576773,
            "lng": 1.454742
        },
        "status": "OPEN"
    },
    {
        "address": "FACE 49 AV D' ITALIE",
        "available_bike_stands": 6,
        "available_bikes": 11,
        "banking": true,
        "bike_stands": 17,
        "bonus": false,
        "contract_name": "toulouse",
        "name": "00162 - PLACE D'ITALIE",
        "number": 162,
        "position": {
            "lat": 43.580296,
            "lng": 1.45486
        },
        "status": "OPEN"
    },
    {
        "address": "115 AV ALBERT BEDOUCE",
        "available_bike_stands": 3,
        "available_bikes": 17,
        "banking": true,
        "bike_stands": 20,
        "bonus": false,
        "contract_name": "toulouse",
        "name": "00163 - BEDOUCE - MIDI",
        "number": 163,
        "position": {
            "lat": 43.581506,
            "lng": 1.462341
        },
        "status": "OPEN"
    },
    {
        "address": "FACE 79 AV ALBERT BEDOUCE",
        "available_bike_stands": 7,
        "available_bikes": 13,
        "banking": true,
        "bike_stands": 20,
        "bonus": false,
        "contract_name": "toulouse",
        "name": "00164 - BEDOUCE - SAOUZELONG",
        "number": 164,
        "position": {
            "lat": 43.579846,
            "lng": 1.460126
        },
        "status": "OPEN"
    },
    {
        "address": "33 AVENUE DES AVIONS",
        "available_bike_stands": 1,
        "available_bikes": 14,
        "banking": true,
        "bike_stands": 15,
        "bonus": false,
        "contract_name": "toulouse",
        "name": "00165 - PLACE DES AVIONS",
        "number": 165,
        "position": {
            "lat": 43.57688,
            "lng": 1.460189
        },
        "status": "OPEN"
    },
    {
        "address": "23 RUE GUYOU",
        "available_bike_stands": 3,
        "available_bikes": 16,
        "banking": true,
        "bike_stands": 20,
        "bonus": false,
        "contract_name": "toulouse",
        "name": "00166 - METRO RANGUEIL - GUYOU",
        "number": 166,
        "position": {
            "lat": 43.57421,
            "lng": 1.462367
        },
        "status": "OPEN"
    },
    {
        "address": "RUE LAPUJADE / ANGLE RUE DES FLANDRES",
        "available_bike_stands": 2,
        "available_bikes": 16,
        "banking": true,
        "bike_stands": 18,
        "bonus": false,
        "contract_name": "toulouse",
        "name": "00167 - LAPUJADE - FLANDRES",
        "number": 167,
        "position": {
            "lat": 43.624202,
            "lng": 1.454685
        },
        "status": "OPEN"
    },
    {
        "address": "FACE 3 PL BILA",
        "available_bike_stands": 18,
        "available_bikes": 2,
        "banking": true,
        "bike_stands": 20,
        "bonus": true,
        "contract_name": "toulouse",
        "name": "00168 - PLACE BILA - ROUTE D'ALBI",
        "number": 168,
        "position": {
            "lat": 43.626597,
            "lng": 1.458835
        },
        "status": "OPEN"
    },
    {
        "address": "65 RTE D'ALBI",
        "available_bike_stands": 6,
        "available_bikes": 10,
        "banking": true,
        "bike_stands": 17,
        "bonus": false,
        "contract_name": "toulouse",
        "name": "00169 - ROUTE D'ALBI - JAFFARY",
        "number": 169,
        "position": {
            "lat": 43.632532,
            "lng": 1.463081
        },
        "status": "OPEN"
    },
    {
        "address": "FACE 163 CHE NICOL",
        "available_bike_stands": 10,
        "available_bikes": 7,
        "banking": true,
        "bike_stands": 17,
        "bonus": false,
        "contract_name": "toulouse",
        "name": "00170 - ROUTE D'ALBI - NICOL",
        "number": 170,
        "position": {
            "lat": 43.635586,
            "lng": 1.464289
        },
        "status": "OPEN"
    },
    {
        "address": "191 RTE D'ALBI",
        "available_bike_stands": 1,
        "available_bikes": 17,
        "banking": true,
        "bike_stands": 18,
        "bonus": false,
        "contract_name": "toulouse",
        "name": "00171 - ROUTE D ALBI - PELET",
        "number": 171,
        "position": {
            "lat": 43.641034,
            "lng": 1.466458
        },
        "status": "OPEN"
    },
    {
        "address": "RD-PT DE L'ABBE LAFFORGUE ANGLE RUE HENRI EBELOT",
        "available_bike_stands": 13,
        "available_bikes": 7,
        "banking": true,
        "bike_stands": 20,
        "bonus": false,
        "contract_name": "toulouse",
        "name": "00172 - NETWILLER - LAFFORGUE",
        "number": 172,
        "position": {
            "lat": 43.642859,
            "lng": 1.461124
        },
        "status": "OPEN"
    },
    {
        "address": "25 AV MAURICE BOURGES MAUNOURY",
        "available_bike_stands": 9,
        "available_bikes": 10,
        "banking": true,
        "bike_stands": 19,
        "bonus": false,
        "contract_name": "toulouse",
        "name": "00173 - MAUNOURY - SEGLA",
        "number": 173,
        "position": {
            "lat": 43.633171,
            "lng": 1.450638
        },
        "status": "OPEN"
    },
    {
        "address": "41 AV MAURICE BOURGES MAUNOURY",
        "available_bike_stands": 0,
        "available_bikes": 18,
        "banking": true,
        "bike_stands": 19,
        "bonus": false,
        "contract_name": "toulouse",
        "name": "00174 - MAUNOURY - MELAT",
        "number": 174,
        "position": {
            "lat": 43.63694,
            "lng": 1.452615
        },
        "status": "OPEN"
    },
    {
        "address": "FACE 52 AV BOURGES MAUNOURY",
        "available_bike_stands": 14,
        "available_bikes": 16,
        "banking": true,
        "bike_stands": 30,
        "bonus": false,
        "contract_name": "toulouse",
        "name": "00175 - METRO BORDEROUGE - MAUNOURY",
        "number": 175,
        "position": {
            "lat": 43.639633,
            "lng": 1.452569
        },
        "status": "OPEN"
    },
    {
        "address": "1 RUE DU GENERAL COMPANS",
        "available_bike_stands": 17,
        "available_bikes": 1,
        "banking": true,
        "bike_stands": 18,
        "bonus": false,
        "contract_name": "toulouse",
        "name": "00176 - GENERAL COMPANS",
        "number": 176,
        "position": {
            "lat": 43.606701,
            "lng": 1.458143
        },
        "status": "OPEN"
    },
    {
        "address": "64 RUE BAILLAUD",
        "available_bike_stands": 19,
        "available_bikes": 1,
        "banking": true,
        "bike_stands": 20,
        "bonus": false,
        "contract_name": "toulouse",
        "name": "00177 - BAILLAUD - BRUNAUD",
        "number": 177,
        "position": {
            "lat": 43.617458,
            "lng": 1.465428
        },
        "status": "OPEN"
    },
    {
        "address": "FACE 100 AV YVES BRUNAUD",
        "available_bike_stands": 20,
        "available_bikes": 0,
        "banking": true,
        "bike_stands": 20,
        "bonus": false,
        "contract_name": "toulouse",
        "name": "00178 - BRUNAUD - PLANA",
        "number": 178,
        "position": {
            "lat": 43.619291,
            "lng": 1.468681
        },
        "status": "OPEN"
    },
    {
        "address": "5 CH CASSAING",
        "available_bike_stands": 8,
        "available_bikes": 9,
        "banking": true,
        "bike_stands": 17,
        "bonus": false,
        "contract_name": "toulouse",
        "name": "00179 - CASSAING - PLANA",
        "number": 179,
        "position": {
            "lat": 43.616938,
            "lng": 1.473616
        },
        "status": "OPEN"
    },
    {
        "address": "3 PLACE DE SOUPETARD",
        "available_bike_stands": 2,
        "available_bikes": 16,
        "banking": true,
        "bike_stands": 18,
        "bonus": false,
        "contract_name": "toulouse",
        "name": "00180 - PLACE DE SOUPETARD",
        "number": 180,
        "position": {
            "lat": 43.612162,
            "lng": 1.477347
        },
        "status": "OPEN"
    },
    {
        "address": "27 AV LOUIS PLANA",
        "available_bike_stands": 3,
        "available_bikes": 14,
        "banking": true,
        "bike_stands": 17,
        "bonus": false,
        "contract_name": "toulouse",
        "name": "00181 - PLANA - GARNIER",
        "number": 181,
        "position": {
            "lat": 43.609275,
            "lng": 1.479898
        },
        "status": "OPEN"
    },
    {
        "address": "FACE 155 AV JEAN CHAUBET",
        "available_bike_stands": 3,
        "available_bikes": 17,
        "banking": true,
        "bike_stands": 20,
        "bonus": false,
        "contract_name": "toulouse",
        "name": "00182 - CHAUBET",
        "number": 182,
        "position": {
            "lat": 43.60592,
            "lng": 1.481742
        },
        "status": "OPEN"
    },
    {
        "address": "RUE DE CUGNAUX",
        "available_bike_stands": 3,
        "available_bikes": 15,
        "banking": true,
        "bike_stands": 18,
        "bonus": false,
        "contract_name": "toulouse",
        "name": "00183 - RUE DE CUGNAUX",
        "number": 183,
        "position": {
            "lat": 43.593147,
            "lng": 1.424313
        },
        "status": "OPEN"
    },
    {
        "address": "30 RUE ROUBICHOU",
        "available_bike_stands": 2,
        "available_bikes": 13,
        "banking": true,
        "bike_stands": 15,
        "bonus": false,
        "contract_name": "toulouse",
        "name": "00185 - ROUBICHOU - ARLES",
        "number": 185,
        "position": {
            "lat": 43.627108,
            "lng": 1.465538
        },
        "status": "OPEN"
    },
    {
        "address": "1 IMPASSE BACHAGA BOUALAM",
        "available_bike_stands": 2,
        "available_bikes": 16,
        "banking": true,
        "bike_stands": 18,
        "bonus": false,
        "contract_name": "toulouse",
        "name": "00186 - DESBALS - BOUALAM",
        "number": 186,
        "position": {
            "lat": 43.579171,
            "lng": 1.410939
        },
        "status": "OPEN"
    },
    {
        "address": "187 RUE HENRI DESBALS",
        "available_bike_stands": 4,
        "available_bikes": 13,
        "banking": true,
        "bike_stands": 17,
        "bonus": false,
        "contract_name": "toulouse",
        "name": "00187 - DESBALS - MONT DORE",
        "number": 187,
        "position": {
            "lat": 43.58456,
            "lng": 1.415683
        },
        "status": "OPEN"
    },
    {
        "address": "121 AVENUE DE MURET",
        "available_bike_stands": 1,
        "available_bikes": 19,
        "banking": true,
        "bike_stands": 20,
        "bonus": false,
        "contract_name": "toulouse",
        "name": "00188 - MURET - LAFAGE",
        "number": 188,
        "position": {
            "lat": 43.584339,
            "lng": 1.427597
        },
        "status": "OPEN"
    },
    {
        "address": "44 AVENUE DE MURET",
        "available_bike_stands": 6,
        "available_bikes": 13,
        "banking": true,
        "bike_stands": 20,
        "bonus": false,
        "contract_name": "toulouse",
        "name": "00189 - MURET - BOUTINON",
        "number": 189,
        "position": {
            "lat": 43.581816,
            "lng": 1.425713
        },
        "status": "OPEN"
    },
    {
        "address": "39 RTE D'ESPAGNE",
        "available_bike_stands": 1,
        "available_bikes": 19,
        "banking": true,
        "bike_stands": 20,
        "bonus": false,
        "contract_name": "toulouse",
        "name": "00190 - ESPAGNE - LES OUSTALOUS",
        "number": 190,
        "position": {
            "lat": 43.577437,
            "lng": 1.423953
        },
        "status": "OPEN"
    },
    {
        "address": "395 ROUTE DE SAINT SIMON",
        "available_bike_stands": 15,
        "available_bikes": 3,
        "banking": true,
        "bike_stands": 18,
        "bonus": false,
        "contract_name": "toulouse",
        "name": "00191 - RUE DU 14 JUILLET - ROUTE DE SAINT-SIMON",
        "number": 191,
        "position": {
            "lat": 43.590046,
            "lng": 1.415246
        },
        "status": "OPEN"
    },
    {
        "address": "355 ROUTE DE SAINT-SIMON",
        "available_bike_stands": 4,
        "available_bikes": 14,
        "banking": true,
        "bike_stands": 20,
        "bonus": false,
        "contract_name": "toulouse",
        "name": "00192 - ROUTE DE ST SIMON - PRADO",
        "number": 192,
        "position": {
            "lat": 43.587845,
            "lng": 1.409785
        },
        "status": "OPEN"
    },
    {
        "address": "59 AV DE LOMBEZ",
        "available_bike_stands": 15,
        "available_bikes": 5,
        "banking": true,
        "bike_stands": 20,
        "bonus": false,
        "contract_name": "toulouse",
        "name": "00193 - LOMBEZ - PETITE VITESSE",
        "number": 193,
        "position": {
            "lat": 43.59487,
            "lng": 1.415088
        },
        "status": "OPEN"
    },
    {
        "address": "138 AV DE LOMBEZ",
        "available_bike_stands": 18,
        "available_bikes": 2,
        "banking": true,
        "bike_stands": 20,
        "bonus": false,
        "contract_name": "toulouse",
        "name": "00194 - LOMBEZ - HIPPODROME",
        "number": 194,
        "position": {
            "lat": 43.593974,
            "lng": 1.410268
        },
        "status": "OPEN"
    },
    {
        "address": "FACE 15 RUE PIERRE LAROUSSE",
        "available_bike_stands": 15,
        "available_bikes": 2,
        "banking": true,
        "bike_stands": 18,
        "bonus": false,
        "contract_name": "toulouse",
        "name": "00195 - LARROUSSE - RIEUX",
        "number": 195,
        "position": {
            "lat": 43.597355,
            "lng": 1.459063
        },
        "status": "OPEN"
    },
    {
        "address": "6 RUE JEAN GOUJON",
        "available_bike_stands": 19,
        "available_bikes": 1,
        "banking": true,
        "bike_stands": 20,
        "bonus": false,
        "contract_name": "toulouse",
        "name": "00196 - GOUJON - GUILHEMERY",
        "number": 196,
        "position": {
            "lat": 43.601719,
            "lng": 1.458019
        },
        "status": "OPEN"
    },
    {
        "address": "6 AV LOUIS BLERIOT",
        "available_bike_stands": 20,
        "available_bikes": 0,
        "banking": true,
        "bike_stands": 20,
        "bonus": true,
        "contract_name": "toulouse",
        "name": "00197 - CASERNE PERIGNON",
        "number": 197,
        "position": {
            "lat": 43.600361,
            "lng": 1.464039
        },
        "status": "OPEN"
    },
    {
        "address": "FACE 25 CHEMIN LAFILAIRE",
        "available_bike_stands": 19,
        "available_bikes": 1,
        "banking": true,
        "bike_stands": 20,
        "bonus": true,
        "contract_name": "toulouse",
        "name": "00198 - LAFILAIRE - DELTOUR",
        "number": 198,
        "position": {
            "lat": 43.596193,
            "lng": 1.473375
        },
        "status": "OPEN"
    },
    {
        "address": "4 BD DELTOUR",
        "available_bike_stands": 22,
        "available_bikes": 0,
        "banking": true,
        "bike_stands": 22,
        "bonus": true,
        "contract_name": "toulouse",
        "name": "00199 - DELTOUR - RIEUX",
        "number": 199,
        "position": {
            "lat": 43.591484,
            "lng": 1.470014
        },
        "status": "OPEN"
    },
    {
        "address": "256 AV ANTOINE DE ST EXUPERY",
        "available_bike_stands": 13,
        "available_bikes": 4,
        "banking": true,
        "bike_stands": 18,
        "bonus": false,
        "contract_name": "toulouse",
        "name": "00201 - POTEZ -SAINT-EXUPERY",
        "number": 201,
        "position": {
            "lat": 43.579763,
            "lng": 1.480838
        },
        "status": "OPEN"
    },
    {
        "address": "165 AV ANTOINE DE ST EXUPERY",
        "available_bike_stands": 16,
        "available_bikes": 1,
        "banking": true,
        "bike_stands": 17,
        "bonus": false,
        "contract_name": "toulouse",
        "name": "00202 - SAINT-EXUPERY - COURREGE",
        "number": 202,
        "position": {
            "lat": 43.581632,
            "lng": 1.475865
        },
        "status": "OPEN"
    },
    {
        "address": "2 AV ANTOINE DE ST EXUPERY",
        "available_bike_stands": 4,
        "available_bikes": 16,
        "banking": true,
        "bike_stands": 20,
        "bonus": false,
        "contract_name": "toulouse",
        "name": "00203 - SAINT-EXUPERY - PETIT PRINCE",
        "number": 203,
        "position": {
            "lat": 43.58355,
            "lng": 1.470033
        },
        "status": "OPEN"
    },
    {
        "address": "PL ROGER ARNAUD",
        "available_bike_stands": 2,
        "available_bikes": 16,
        "banking": true,
        "bike_stands": 18,
        "bonus": false,
        "contract_name": "toulouse",
        "name": "00204 - PLACE ROGER ARNAUD",
        "number": 204,
        "position": {
            "lat": 43.586859,
            "lng": 1.463178
        },
        "status": "OPEN"
    },
    {
        "address": "58 AV DES COTTAGES",
        "available_bike_stands": 15,
        "available_bikes": 3,
        "banking": true,
        "bike_stands": 18,
        "bonus": false,
        "contract_name": "toulouse",
        "name": "00205 - COTTAGE - RIEUX",
        "number": 205,
        "position": {
            "lat": 43.585924,
            "lng": 1.475057
        },
        "status": "OPEN"
    },
    {
        "address": "20 AV ARMAND LEYGUE",
        "available_bike_stands": 18,
        "available_bikes": 0,
        "banking": true,
        "bike_stands": 18,
        "bonus": false,
        "contract_name": "toulouse",
        "name": "00206 - LEYGUE - RIEUX",
        "number": 206,
        "position": {
            "lat": 43.594117,
            "lng": 1.465197
        },
        "status": "OPEN"
    },
    {
        "address": "FACE 25 RUE DE L AUDE",
        "available_bike_stands": 10,
        "available_bikes": 7,
        "banking": true,
        "bike_stands": 17,
        "bonus": false,
        "contract_name": "toulouse",
        "name": "00207 - CHRIST ROI",
        "number": 207,
        "position": {
            "lat": 43.583202,
            "lng": 1.481757
        },
        "status": "OPEN"
    },
    {
        "address": "RD-PT ALL DE LIMAYRAC / ANGLE RUE DARASSE",
        "available_bike_stands": 10,
        "available_bikes": 8,
        "banking": true,
        "bike_stands": 18,
        "bonus": false,
        "contract_name": "toulouse",
        "name": "00208 - LIMAYRAC - DARASSE",
        "number": 208,
        "position": {
            "lat": 43.591199,
            "lng": 1.480065
        },
        "status": "OPEN"
    },
    {
        "address": "4 AV LUCIEN BAROUX",
        "available_bike_stands": 15,
        "available_bikes": 3,
        "banking": true,
        "bike_stands": 18,
        "bonus": false,
        "contract_name": "toulouse",
        "name": "00209 - BAROUX - DARASSE",
        "number": 209,
        "position": {
            "lat": 43.589557,
            "lng": 1.4789
        },
        "status": "OPEN"
    },
    {
        "address": "FACE 42 CHE DE LA TERRASSE",
        "available_bike_stands": 11,
        "available_bikes": 7,
        "banking": true,
        "bike_stands": 18,
        "bonus": false,
        "contract_name": "toulouse",
        "name": "00210 - TERRASSE - CENTRE COMMERCIAL",
        "number": 210,
        "position": {
            "lat": 43.586086,
            "lng": 1.482942
        },
        "status": "OPEN"
    },
    {
        "address": "9 RUE LE DORMEUR",
        "available_bike_stands": 13,
        "available_bikes": 5,
        "banking": true,
        "bike_stands": 18,
        "bonus": false,
        "contract_name": "toulouse",
        "name": "00211 - LE DORMEUR - LA TERRASSE",
        "number": 211,
        "position": {
            "lat": 43.583511,
            "lng": 1.487795
        },
        "status": "OPEN"
    },
    {
        "address": "RUE DE LA CHAUMIERE / 50 M APRES RD-PT DU CAPITAINE DREYFUS",
        "available_bike_stands": 13,
        "available_bikes": 3,
        "banking": true,
        "bike_stands": 17,
        "bonus": false,
        "contract_name": "toulouse",
        "name": "00212 - CHAUMIERE - CHIRAC",
        "number": 212,
        "position": {
            "lat": 43.6152,
            "lng": 1.465444
        },
        "status": "OPEN"
    },
    {
        "address": "129 AV DE CASTRES",
        "available_bike_stands": 16,
        "available_bikes": 1,
        "banking": true,
        "bike_stands": 17,
        "bonus": true,
        "contract_name": "toulouse",
        "name": "00213 - PUJOL - CHAUBET",
        "number": 213,
        "position": {
            "lat": 43.600704,
            "lng": 1.467249
        },
        "status": "OPEN"
    },
    {
        "address": "48 AV DE CASTRES",
        "available_bike_stands": 16,
        "available_bikes": 1,
        "banking": true,
        "bike_stands": 17,
        "bonus": true,
        "contract_name": "toulouse",
        "name": "00214 - CASTRES - ACHIARY",
        "number": 214,
        "position": {
            "lat": 43.600828,
            "lng": 1.473579
        },
        "status": "OPEN"
    },
    {
        "address": "FACE 8 RUE DE GAILLAC",
        "available_bike_stands": 19,
        "available_bikes": 1,
        "banking": true,
        "bike_stands": 20,
        "bonus": false,
        "contract_name": "toulouse",
        "name": "00215 - METRO ARGOULETS",
        "number": 215,
        "position": {
            "lat": 43.623823,
            "lng": 1.475935
        },
        "status": "OPEN"
    },
    {
        "address": "3 RUE JEAN HOUDON",
        "available_bike_stands": 12,
        "available_bikes": 5,
        "banking": true,
        "bike_stands": 17,
        "bonus": false,
        "contract_name": "toulouse",
        "name": "00216 - ARGOULETS - HOUDON",
        "number": 216,
        "position": {
            "lat": 43.622823,
            "lng": 1.474083
        },
        "status": "OPEN"
    },
    {
        "address": "42 CHEMIN AMOUROUX",
        "available_bike_stands": 2,
        "available_bikes": 16,
        "banking": true,
        "bike_stands": 18,
        "bonus": false,
        "contract_name": "toulouse",
        "name": "00217 - AMOUROUX - SAINT-TROPEZ",
        "number": 217,
        "position": {
            "lat": 43.629655,
            "lng": 1.466259
        },
        "status": "OPEN"
    },
    {
        "address": "24 BIS CHE AMOUROUX",
        "available_bike_stands": 15,
        "available_bikes": 3,
        "banking": true,
        "bike_stands": 18,
        "bonus": false,
        "contract_name": "toulouse",
        "name": "00218 - AMOUROUX - SAINTE-AUGUSTINE",
        "number": 218,
        "position": {
            "lat": 43.627643,
            "lng": 1.461861
        },
        "status": "OPEN"
    },
    {
        "address": "35 RUE GIACOMO PUCCINI",
        "available_bike_stands": 12,
        "available_bikes": 6,
        "banking": true,
        "bike_stands": 18,
        "bonus": false,
        "contract_name": "toulouse",
        "name": "00219 - PUCCINI - ROUTE DE BLAGNAC",
        "number": 219,
        "position": {
            "lat": 43.614514,
            "lng": 1.411161
        },
        "status": "OPEN"
    },
    {
        "address": "3 RUE DE L'UNIVERSITE",
        "available_bike_stands": 2,
        "available_bikes": 16,
        "banking": true,
        "bike_stands": 19,
        "bonus": false,
        "contract_name": "toulouse",
        "name": "00220 - TABAR - UNIVERSITE JEAN JAURES",
        "number": 220,
        "position": {
            "lat": 43.574466,
            "lng": 1.402211
        },
        "status": "OPEN"
    },
    {
        "address": "FACE 85 RUE VAUQUELIN",
        "available_bike_stands": 1,
        "available_bikes": 19,
        "banking": true,
        "bike_stands": 20,
        "bonus": false,
        "contract_name": "toulouse",
        "name": "00221 - VAUQUELIN",
        "number": 221,
        "position": {
            "lat": 43.576221,
            "lng": 1.406355
        },
        "status": "OPEN"
    },
    {
        "address": "15 AV DU COLONEL ROCHE",
        "available_bike_stands": 11,
        "available_bikes": 9,
        "banking": true,
        "bike_stands": 20,
        "bonus": false,
        "contract_name": "toulouse",
        "name": "00222 - CAMBOU - ROCHE",
        "number": 222,
        "position": {
            "lat": 43.563894,
            "lng": 1.474416
        },
        "status": "OPEN"
    },
    {
        "address": "7 AV EDOUARD BELIN ANGLE AV ROCHE RD-PT GUY DU MERLE",
        "available_bike_stands": 8,
        "available_bikes": 14,
        "banking": true,
        "bike_stands": 22,
        "bonus": false,
        "contract_name": "toulouse",
        "name": "00223 - ENAC",
        "number": 223,
        "position": {
            "lat": 43.565079,
            "lng": 1.478297
        },
        "status": "OPEN"
    },
    {
        "address": "10 AV EDOUARD BELIN FACE CHATEAU D'EAU CREPS RD-PT JEAN LAGASSE",
        "available_bike_stands": 4,
        "available_bikes": 16,
        "banking": true,
        "bike_stands": 20,
        "bonus": false,
        "contract_name": "toulouse",
        "name": "00224 - CAMPUS SUPAERO",
        "number": 224,
        "position": {
            "lat": 43.56644,
            "lng": 1.475301
        },
        "status": "OPEN"
    },
    {
        "address": "4 AV EDOUARD BELIN DEVANT ONERA FACE AU CREPS",
        "available_bike_stands": 5,
        "available_bikes": 15,
        "banking": true,
        "bike_stands": 20,
        "bonus": false,
        "contract_name": "toulouse",
        "name": "00225 - BELIN - ONERA",
        "number": 225,
        "position": {
            "lat": 43.570117,
            "lng": 1.473463
        },
        "status": "OPEN"
    },
    {
        "address": "FACE 287 RUE DES FONTAINES ANGLE AV DE CASSELARDIT",
        "available_bike_stands": 6,
        "available_bikes": 11,
        "banking": true,
        "bike_stands": 17,
        "bonus": false,
        "contract_name": "toulouse",
        "name": "00226 - FONTAINES - CASSELARDIT",
        "number": 226,
        "position": {
            "lat": 43.604159,
            "lng": 1.407267
        },
        "status": "OPEN"
    },
    {
        "address": "118  RTE DE NARBONNE",
        "available_bike_stands": 2,
        "available_bikes": 29,
        "banking": true,
        "bike_stands": 32,
        "bonus": false,
        "contract_name": "toulouse",
        "name": "00227 - METRO UPS - TELEO",
        "number": 227,
        "position": {
            "lat": 43.561074,
            "lng": 1.462928
        },
        "status": "OPEN"
    },
    {
        "address": "FACE 35 CHEMIN DES MARAICHERS",
        "available_bike_stands": 17,
        "available_bikes": 1,
        "banking": true,
        "bike_stands": 18,
        "bonus": false,
        "contract_name": "toulouse",
        "name": "00228 - METRO FACULTE DE PHARMACIE",
        "number": 228,
        "position": {
            "lat": 43.568165,
            "lng": 1.464353
        },
        "status": "OPEN"
    },
    {
        "address": "129 AV DE RANGUEIL",
        "available_bike_stands": 3,
        "available_bikes": 15,
        "banking": true,
        "bike_stands": 18,
        "bonus": false,
        "contract_name": "toulouse",
        "name": "00229 - RANGUEIL IUT",
        "number": 229,
        "position": {
            "lat": 43.57141,
            "lng": 1.462732
        },
        "status": "OPEN"
    },
    {
        "address": "141 AV DE RANGUEIL",
        "available_bike_stands": 2,
        "available_bikes": 16,
        "banking": true,
        "bike_stands": 20,
        "bonus": false,
        "contract_name": "toulouse",
        "name": "00230 - RANGUEIL TRIPODE B",
        "number": 230,
        "position": {
            "lat": 43.567307,
            "lng": 1.467715
        },
        "status": "OPEN"
    },
    {
        "address": "FACE 215 RTE DE NARBONNE ANGLE ALL EMILE DURAND",
        "available_bike_stands": 1,
        "available_bikes": 19,
        "banking": true,
        "bike_stands": 20,
        "bonus": false,
        "contract_name": "toulouse",
        "name": "00231 - NARBONNE MARFAING",
        "number": 231,
        "position": {
            "lat": 43.557264,
            "lng": 1.46541
        },
        "status": "OPEN"
    },
    {
        "address": "73 RTE DE NARBONNE",
        "available_bike_stands": 2,
        "available_bikes": 13,
        "banking": true,
        "bike_stands": 15,
        "bonus": false,
        "contract_name": "toulouse",
        "name": "00232 - NARBONNE - MIROUSE",
        "number": 232,
        "position": {
            "lat": 43.569089,
            "lng": 1.456292
        },
        "status": "OPEN"
    },
    {
        "address": "FACE 88 RTE DE NARBONNE STATION ESSO",
        "available_bike_stands": 7,
        "available_bikes": 13,
        "banking": true,
        "bike_stands": 20,
        "bonus": false,
        "contract_name": "toulouse",
        "name": "00233 - NARBONNE - SAHUQUE",
        "number": 233,
        "position": {
            "lat": 43.566528,
            "lng": 1.458648
        },
        "status": "OPEN"
    },
    {
        "address": "50M APRES 4 RUE PIERRETTE LOUIN",
        "available_bike_stands": 2,
        "available_bikes": 13,
        "banking": true,
        "bike_stands": 15,
        "bonus": false,
        "contract_name": "toulouse",
        "name": "00234 - LOUIN - RAYNAL",
        "number": 234,
        "position": {
            "lat": 43.628145,
            "lng": 1.451413
        },
        "status": "OPEN"
    },
    {
        "address": "FACE AU 8 RUE PAUL VERLAINE",
        "available_bike_stands": 0,
        "available_bikes": 18,
        "banking": true,
        "bike_stands": 19,
        "bonus": false,
        "contract_name": "toulouse",
        "name": "00235 - METRO LAVACHE - VERLAINE",
        "number": 235,
        "position": {
            "lat": 43.633454,
            "lng": 1.435519
        },
        "status": "OPEN"
    },
    {
        "address": "RUE DE L'ABBE JULES LEMIRE ANGLE VOIE DU TOEC",
        "available_bike_stands": 9,
        "available_bikes": 11,
        "banking": true,
        "bike_stands": 20,
        "bonus": false,
        "contract_name": "toulouse",
        "name": "00236 - TOEC - LEMIRE",
        "number": 236,
        "position": {
            "lat": 43.597322,
            "lng": 1.403694
        },
        "status": "OPEN"
    },
    {
        "address": "16 BIS AV EDOUARD BELIN FACE CNRS",
        "available_bike_stands": 5,
        "available_bikes": 15,
        "banking": true,
        "bike_stands": 20,
        "bonus": false,
        "contract_name": "toulouse",
        "name": "00237 - CNRS",
        "number": 237,
        "position": {
            "lat": 43.562273,
            "lng": 1.480912
        },
        "status": "OPEN"
    },
    {
        "address": "FACE 48/58 CHEMIN DE LA BUTTE",
        "available_bike_stands": 7,
        "available_bikes": 10,
        "banking": true,
        "bike_stands": 17,
        "bonus": false,
        "contract_name": "toulouse",
        "name": "00238 - HERBETTES - BUTTE",
        "number": 238,
        "position": {
            "lat": 43.579341,
            "lng": 1.47313
        },
        "status": "OPEN"
    },
    {
        "address": "ANGLE AVENUE DE LESPINET ET RUE GEORGES BIDAULT",
        "available_bike_stands": 0,
        "available_bikes": 24,
        "banking": true,
        "bike_stands": 25,
        "bonus": false,
        "contract_name": "toulouse",
        "name": "00239 - LESPINET - HERBETTES",
        "number": 239,
        "position": {
            "lat": 43.576637,
            "lng": 1.470245
        },
        "status": "OPEN"
    },
    {
        "address": "FACE 103 BIS ROUTE DE BLAGNAC",
        "available_bike_stands": 2,
        "available_bikes": 16,
        "banking": true,
        "bike_stands": 18,
        "bonus": false,
        "contract_name": "toulouse",
        "name": "00240 - PLACE JOB - RTE DE BLAGNAC",
        "number": 240,
        "position": {
            "lat": 43.616945,
            "lng": 1.408383
        },
        "status": "OPEN"
    },
    {
        "address": "57 RTE D'ESPAGNE",
        "available_bike_stands": 0,
        "available_bikes": 20,
        "banking": true,
        "bike_stands": 20,
        "bonus": false,
        "contract_name": "toulouse",
        "name": "00241 - ESPAGNE - CHARPENTIER",
        "number": 241,
        "position": {
            "lat": 43.575101,
            "lng": 1.424227
        },
        "status": "OPEN"
    },