[
    {
        "address": "C/GUILLEM DE CASTRO esquina con C/NA JORDANA",
        "available_bike_stands": 15,
        "available_bikes": 10,
        "banking": true,
        "bike_stands": 25,
        "bonus": false,
        "contract_name": "valence",
        "name": "001_GUILLEN_DE_CASTRO",
        "number": 1,
        "position": {
            "lat": 39.48001,
            "lng": -0.38302
        },
        "status": "OPEN"
    },
    {
        "address": "Salvador Giner - C. Museo",
        "available_bike_stands": 6,
        "available_bikes": 9,
        "banking": false,
        "bike_stands": 15,
        "bonus": false,
        "contract_name": "valence",
        "name": "002_CALLE_SALVADOR_GINER_CALLE_MUSEO",
        "number": 2,
        "position": {
            "lat": 39.4798571258551,
            "lng": -0.379839115061075
        },
        "status": "OPEN"
    },
    {
        "address": "Plaza del Musico L\u00f3pez Chavarri",
        "available_bike_stands": 17,
        "available_bikes": 3,
        "banking": true,
        "bike_stands": 20,
        "bonus": false,
        "contract_name": "valence",
        "name": "003_PLAZA_MUSICO_LOPEZ_CHAVARRI",
        "number": 3,
        "position": {
            "lat": 39.4768031153802,
            "lng": -0.38037911504075
        },
        "status": "OPEN"
    },
    {
        "address": "Plaza de la Virgen - Bail\u00eda",
        "available_bike_stands": 15,
        "available_bikes": 10,
        "banking": true,
        "bike_stands": 25,
        "bonus": false,
        "contract_name": "valence",
        "name": "004_PLAZA_DE_LA_VIRGEN_CALLE_BAILIA",
        "number": 4,
        "position": {
            "lat": 39.4767151166769,
            "lng": -0.375433100164395
        },
        "status": "OPEN"
    },
    {
        "address": "Plaza Poeta Llorente",
        "available_bike_stands": 7,
        "available_bikes": 8,
        "banking": true,
        "bike_stands": 15,
        "bonus": false,
        "contract_name": "valence",
        "name": "005_PINTOR_LOPEZ_PZA_POETA_LLORENTE",
        "number": 5,
        "position": {
            "lat": 39.4768631185303,
            "lng": -0.371231087646942
        },
        "status": "OPEN"
    },
    {
        "address": "Guillem de Castro - San Pedro Pascual",
        "available_bike_stands": 12,
        "available_bikes": 3,
        "banking": true,
        "bike_stands": 15,
        "bonus": false,
        "contract_name": "valence",
        "name": "006_GUILLEN_CASTRO_CON_CALLE_SAN_PEDRO_PASCUAL",
        "number": 6,
        "position": {
            "lat": 39.4727661005389,
            "lng": -0.384174124251856
        },
        "status": "OPEN"
    },
    {
        "address": "Plaza del Mercado - Taula de Canvis",
        "available_bike_stands": 13,
        "available_bikes": 6,
        "banking": true,
        "bike_stands": 19,
        "bonus": false,
        "contract_name": "valence",
        "name": "007_PZA_DEL_MERCADO_TAULA_DE_CANVIS",
        "number": 7,
        "position": {
            "lat": 39.4748401091142,
            "lng": -0.379276110679168
        },
        "status": "OPEN"
    },
    {
        "address": "Plaza de la Reina - Mar",
        "available_bike_stands": 1,
        "available_bikes": 8,
        "banking": true,
        "bike_stands": 9,
        "bonus": false,
        "contract_name": "valence",
        "name": "008_PLAZA_DE_LA_REINA_ESQUINA_CALLE_DEL_MAR",
        "number": 8,
        "position": {
            "lat": 39.473849,
            "lng": -0.375389
        },
        "status": "OPEN"
    },
    {
        "address": "Plaza de Tetu\u00e1n",
        "available_bike_stands": 24,
        "available_bikes": 1,
        "banking": true,
        "bike_stands": 25,
        "bonus": false,
        "contract_name": "valence",
        "name": "009_PLAZA_TETUAN_4",
        "number": 9,
        "position": {
            "lat": 39.4743231103546,
            "lng": -0.370021082654504
        },
        "status": "OPEN"
    },
    {
        "address": "Hospital - Horno del Hospital",
        "available_bike_stands": 6,
        "available_bikes": 9,
        "banking": true,
        "bike_stands": 15,
        "bonus": false,
        "contract_name": "valence",
        "name": "010_CALLE_DEL_HOSPITAL_FRENTE_CALLE_HORNO_DEL_HOSP",
        "number": 10,
        "position": {
            "lat": 39.4707840943272,
            "lng": -0.382701118769287
        },
        "status": "OPEN"
    },
    {
        "address": "Plaza Ayuntamiento - Cotanda",
        "available_bike_stands": 13,
        "available_bikes": 14,
        "banking": true,
        "bike_stands": 27,
        "bonus": false,
        "contract_name": "valence",
        "name": "011_PZA_AYTO_CON_CALLE_COTANDA",
        "number": 11,
        "position": {
            "lat": 39.471154097455,
            "lng": -0.376875101498657
        },
        "status": "OPEN"
    },
    {
        "address": "Calle Salv\u00e1 - Calle Poeta Querol",
        "available_bike_stands": 20,
        "available_bikes": 0,
        "banking": true,
        "bike_stands": 20,
        "bonus": false,
        "contract_name": "valence",
        "name": "012_CALLE_MINYANA",
        "number": 12,
        "position": {
            "lat": 39.471935,
            "lng": -0.374101
        },
        "status": "OPEN"
    },
    {
        "address": "Alfonso el Magn\u00e1nimo - Nave",
        "available_bike_stands": 20,
        "available_bikes": 4,
        "banking": true,
        "bike_stands": 24,
        "bonus": false,
        "contract_name": "valence",
        "name": "013_PZA. ALFONSO MAGNANIMO_CON_CALLE_LA_NAVE",
        "number": 13,
        "position": {
            "lat": 39.4720301023169,
            "lng": -0.370965084251257
        },
        "status": "OPEN"
    },
    {
        "address": "Huesca - Bar\u00f3n de C\u00e1rcer",
        "available_bike_stands": 19,
        "available_bikes": 1,
        "banking": true,
        "bike_stands": 20,
        "bonus": false,
        "contract_name": "valence",
        "name": "014_BAR\u00d3N CARCER",
        "number": 14,
        "position": {
            "lat": 39.4689350890206,
            "lng": -0.379815109120643
        },
        "status": "OPEN"
    },
    {
        "address": "Ribera - Plaza Ayuntamiento",
        "available_bike_stands": 33,
        "available_bikes": 1,
        "banking": true,
        "bike_stands": 34,
        "bonus": false,
        "contract_name": "valence",
        "name": "015_RIBERA",
        "number": 15,
        "position": {
            "lat": 39.4690560906886,
            "lng": -0.375728096943875
        },
        "status": "OPEN"
    },
    {
        "address": "Col\u00f3n, 60",
        "available_bike_stands": 11,
        "available_bikes": 9,
        "banking": true,
        "bike_stands": 20,
        "bonus": false,
        "contract_name": "valence",
        "name": "016_COLON I",
        "number": 16,
        "position": {
            "lat": 39.470060095815,
            "lng": -0.370524081869223
        },
        "status": "OPEN"
    },
    {
        "address": "X\u00e1tiva - Bail\u00e9n (Estaci\u00f3n del Norte)",
        "available_bike_stands": 0,
        "available_bikes": 0,
        "banking": true,
        "bike_stands": 30,
        "bonus": false,
        "contract_name": "valence",
        "name": "017_ESTACION RENFE I",
        "number": 17,
        "position": {
            "lat": 39.4674360847595,
            "lng": -0.377350100922523
        },
        "status": "OPEN"
    },
    {
        "address": "Col\u00f3n 20-22",
        "available_bike_stands": 22,
        "available_bikes": 2,
        "banking": true,
        "bike_stands": 24,
        "bonus": false,
        "contract_name": "valence",
        "name": "018_COLON II",
        "number": 18,
        "position": {
            "lat": 39.4681590885325,
            "lng": -0.373220088928677
        },
        "status": "OPEN"
    },
    {
        "address": "Juan Llorens - Quart",
        "available_bike_stands": 15,
        "available_bikes": 0,
        "banking": false,
        "bike_stands": 15,
        "bonus": false,
        "contract_name": "valence",
        "name": "019_JUAN_LLORENS",
        "number": 19,
        "position": {
            "lat": 39.4743371034203,
            "lng": -0.391681147609965
        },
        "status": "OPEN"
    },
    {
        "address": "Quart - Fernando el Cat\u00f3lico",
        "available_bike_stands": 6,
        "available_bikes": 10,
        "banking": true,
        "bike_stands": 16,
        "bonus": false,
        "contract_name": "valence",
        "name": "020_FERNANDO_EL_CATOLICO_CALLE_QUART",
        "number": 20,
        "position": {
            "lat": 39.4750021068696,
            "lng": -0.387938136740957
        },
        "status": "OPEN"
    },
    {
        "address": "Juan Llorens - Literato Gabriel Mir\u00f3",
        "available_bike_stands": 15,
        "available_bikes": 1,
        "banking": true,
        "bike_stands": 16,
        "bonus": false,
        "contract_name": "valence",
        "name": "021_JUAN_LLORENS_29",
        "number": 21,
        "position": {
            "lat": 39.4723390971218,
            "lng": -0.390305142409828
        },
        "status": "OPEN"
    },
    {
        "address": "Angel Guimer\u00e1 - Juan Llorens",
        "available_bike_stands": 14,
        "available_bikes": 1,
        "banking": false,
        "bike_stands": 15,
        "bonus": false,
        "contract_name": "valence",
        "name": "022_JUAN_LLORENS_57",
        "number": 22,
        "position": {
            "lat": 39.4697550890028,
            "lng": -0.388444135439494
        },
        "status": "OPEN"
    },
    {
        "address": "Fernando el Cat\u00f3lico - Erudito Orellana",
        "available_bike_stands": 16,
        "available_bikes": 2,
        "banking": true,
        "bike_stands": 19,
        "bonus": false,
        "contract_name": "valence",
        "name": "023_GRAN_VIA_FERNANDO_EL_CATOLICO",
        "number": 23,
        "position": {
            "lat": 39.471596095916,
            "lng": -0.3862691299059
        },
        "status": "OPEN"
    },
    {
        "address": "Fernando el Cat\u00f3lico - Cuenca",
        "available_bike_stands": 18,
        "available_bikes": 0,
        "banking": true,
        "bike_stands": 20,
        "bonus": false,
        "contract_name": "valence",
        "name": "024_GRAN_VIA_RAMON_Y_CAJAL",
        "number": 24,
        "position": {
            "lat": 39.4690450880029,
            "lng": -0.384118122083548
        },
        "status": "OPEN"
    },
    {
        "address": "Alberique, 18 (Abastos)",
        "available_bike_stands": 22,
        "available_bikes": 1,
        "banking": true,
        "bike_stands": 23,
        "bonus": false,
        "contract_name": "valence",
        "name": "025_CALLE_DEL_ALBERIC",
        "number": 25,
        "position": {
            "lat": 39.4676970819754,
            "lng": -0.388701135103807
        },
        "status": "OPEN"
    },
    {
        "address": "San Jos\u00e9 de Calasanz - Salas Quiroga",
        "available_bike_stands": 15,
        "available_bikes": 0,
        "banking": false,
        "bike_stands": 15,
        "bonus": false,
        "contract_name": "valence",
        "name": "026_CALLE_SAN_JOSE_DE_CALASANZ",
        "number": 26,
        "position": {
            "lat": 39.466303,
            "lng": -0.385955
        },
        "status": "OPEN"
    },
    {
        "address": "San Vicente Martir - Doctor Vil\u00e1 Barber\u00e1",
        "available_bike_stands": 18,
        "available_bikes": 2,
        "banking": false,
        "bike_stands": 20,
        "bonus": false,
        "contract_name": "valence",
        "name": "027_CALLE_SAN_VICENTE_MARTIR_129",
        "number": 27,
        "position": {
            "lat": 39.4633300694228,
            "lng": -0.381942112481819
        },
        "status": "OPEN"
    },
    {
        "address": "Navarro Reverter - Grabador Esteve",
        "available_bike_stands": 24,
        "available_bikes": 5,
        "banking": false,
        "bike_stands": 29,
        "bonus": false,
        "contract_name": "valence",
        "name": "028_NAVARRO REVERTE",
        "number": 28,
        "position": {
            "lat": 39.4715501017061,
            "lng": -0.367842074631205
        },
        "status": "OPEN"
    },
    {
        "address": "Plaza Am\u00e9rica - Cirilo Amor\u00f3s - Sorn\u00ed",
        "available_bike_stands": 9,
        "available_bikes": 11,
        "banking": true,
        "bike_stands": 20,
        "bonus": false,
        "contract_name": "valence",
        "name": "029_PLAZA AMERICA",
        "number": 29,
        "position": {
            "lat": 39.4700800975406,
            "lng": -0.36539006649012
        },
        "status": "OPEN"
    },
    {
        "address": "Cirilo Amor\u00f3s - Jorge Juan (Mercado Col\u00f3n)",
        "available_bike_stands": 15,
        "available_bikes": 5,
        "banking": false,
        "bike_stands": 20,
        "bonus": false,
        "contract_name": "valence",
        "name": "030_CIRILO AMOROS",
        "number": 30,
        "position": {
            "lat": 39.468569091411,
            "lng": -0.368590075268948
        },
        "status": "OPEN"
    },
    {
        "address": "Salamanca - Conde Altea",
        "available_bike_stands": 6,
        "available_bikes": 13,
        "banking": false,
        "bike_stands": 19,
        "bonus": false,
        "contract_name": "valence",
        "name": "031_CALLE SALAMANCA",
        "number": 31,
        "position": {
            "lat": 39.4673330883642,
            "lng": -0.365119064198398
        },
        "status": "OPEN"
    },
    {
        "address": "Conde Altea - Almirante Cadarso",
        "available_bike_stands": 17,
        "available_bikes": 3,
        "banking": true,
        "bike_stands": 20,
        "bonus": false,
        "contract_name": "valence",
        "name": "032_C/ CONDE DE ALTEA",
        "number": 32,
        "position": {
            "lat": 39.4659740827401,
            "lng": -0.368338073115823
        },
        "status": "OPEN"
    },
    {
        "address": "German\u00edas - Ruzafa",
        "available_bike_stands": 19,
        "available_bikes": 1,
        "banking": true,
        "bike_stands": 20,
        "bonus": false,
        "contract_name": "valence",
        "name": "033_GRAN_VIA_GERMANIAS_ESQ_CALLE_RUZAFA",
        "number": 33,
        "position": {
            "lat": 39.4647860768762,
            "lng": -0.37408108969372
        },
        "status": "OPEN"
    },
    {
        "address": "Regne de Valencia - Doctor Sumsi",
        "available_bike_stands": 16,
        "available_bikes": 1,
        "banking": false,
        "bike_stands": 17,
        "bonus": false,
        "contract_name": "valence",
        "name": "34_AVDA. ANTIGUO REINO DE VALENCIA",
        "number": 34,
        "position": {
            "lat": 39.4640900758311,
            "lng": -0.370052077239064
        },
        "status": "OPEN"
    },
    {
        "address": "Regne de Valencia - Almirante Cadarso",
        "available_bike_stands": 12,
        "available_bikes": 3,
        "banking": true,
        "bike_stands": 20,
        "bonus": false,
        "contract_name": "valence",
        "name": "35_C/ DUQUE DE CALABRIA",
        "number": 35,
        "position": {
            "lat": 39.4637170755328,
            "lng": -0.367085068143159
        },
        "status": "OPEN"
    },
    {
        "address": "Plaza de los Fueros - Conde Trenor",
        "available_bike_stands": 3,
        "available_bikes": 22,
        "banking": false,
        "bike_stands": 25,
        "bonus": false,
        "contract_name": "valence",
        "name": "036_PZA_LOS_FUEROS_CONDE_TRENOR",
        "number": 36,
        "position": {
            "lat": 39.4790401244879,
            "lng": -0.375527101694727
        },
        "status": "OPEN"
    },
    {
        "address": "Peris y Valero - Luis Sant\u00e1ngel",
        "available_bike_stands": 16,
        "available_bikes": 4,
        "banking": true,
        "bike_stands": 20,
        "bonus": false,
        "contract_name": "valence",
        "name": "37_AVDA. PERIS Y VALERO",
        "number": 37,
        "position": {
            "lat": 39.4609055823944,
            "lng": -0.366531327258963
        },
        "status": "OPEN"
    },
    {
        "address": "Peris y Valero - Cabo Jubi",
        "available_bike_stands": 11,
        "available_bikes": 9,
        "banking": false,
        "bike_stands": 20,
        "bonus": false,
        "contract_name": "valence",
        "name": "38_AVDA. PERIS Y VALERO",
        "number": 38,
        "position": {
            "lat": 39.4593698286773,
            "lng": -0.370340076012569
        },
        "status": "OPEN"
    },
    {
        "address": "Peris y Valero - Cuba",
        "available_bike_stands": 15,
        "available_bikes": 4,
        "banking": true,
        "bike_stands": 19,
        "bonus": false,
        "contract_name": "valence",
        "name": "39_AVDA. PERIS Y VALERO",
        "number": 39,
        "position": {
            "lat": 39.457822053401,
            "lng": -0.374022085762198
        },
        "status": "OPEN"
    },
    {
        "address": "Barcas, 11",
        "available_bike_stands": 26,
        "available_bikes": 0,
        "banking": true,
        "bike_stands": 26,
        "bonus": false,
        "contract_name": "valence",
        "name": "40_CALLE_BARCAS_FRENTE _TEATRO_PRINCIPAL",
        "number": 40,
        "position": {
            "lat": 39.470434095659,
            "lng": -0.374915095234885
        },
        "status": "OPEN"
    },
    {
        "address": "General Urrutia - Granada",
        "available_bike_stands": 16,
        "available_bikes": 4,
        "banking": false,
        "bike_stands": 20,
        "bonus": false,
        "contract_name": "valence",
        "name": "41_AVDA. GRAL. URRUTIA",
        "number": 41,
        "position": {
            "lat": 39.4588800599356,
            "lng": -0.364867058884755
        },
        "status": "OPEN"
    },
    {
        "address": "Av. de la Plata (Museo Fallero)",
        "available_bike_stands": 16,
        "available_bikes": 4,
        "banking": true,
        "bike_stands": 20,
        "bonus": false,
        "contract_name": "valence",
        "name": "42_AVDA. DE LA PLATA",
        "number": 42,
        "position": {
            "lat": 39.4587490614763,
            "lng": -0.358749040474832
        },
        "status": "OPEN"
    },
    {
        "address": "Escultor Jos\u00e9 Capuz - Oriente",
        "available_bike_stands": 19,
        "available_bikes": 1,
        "banking": false,
        "bike_stands": 20,
        "bonus": false,
        "contract_name": "valence",
        "name": "43_C/ DE ORIENTE",
        "number": 43,
        "position": {
            "lat": 39.4594450630151,
            "lng": -0.361244048329219
        },
        "status": "OPEN"
    },
    {
        "address": "General Urrutia - Av. de la Plata",
        "available_bike_stands": 14,
        "available_bikes": 5,
        "banking": true,
        "bike_stands": 19,
        "bonus": false,
        "contract_name": "valence",
        "name": "44_AVDA. GRAL. URRUTIA",
        "number": 44,
        "position": {
            "lat": 39.4563970521313,
            "lng": -0.363105052261891
        },
        "status": "OPEN"
    },
    {
        "address": "Hermanos Maristas - General Urrutia",
        "available_bike_stands": 8,
        "available_bikes": 7,
        "banking": false,
        "bike_stands": 15,
        "bonus": false,
        "contract_name": "valence",
        "name": "45_AVDA. GRAL. URRUTIA",
        "number": 45,
        "position": {
            "lat": 39.4537870437033,
            "lng": -0.361946047377204
        },
        "status": "OPEN"
    },
    {
        "address": "Pintor Luis Arcas - Inst. Obrero Valenciano",
        "available_bike_stands": 18,
        "available_bikes": 2,
        "banking": false,
        "bike_stands": 20,
        "bonus": false,
        "contract_name": "valence",
        "name": "46_AVDA. INSTITUTO OBRERO DE VALENCIA",
        "number": 46,
        "position": {
            "lat": 39.455477050399,
            "lng": -0.358878039093959
        },
        "status": "OPEN"
    },
    {
        "address": "Autopista del Saler - Puente Monteolivete",
        "available_bike_stands": 13,
        "available_bikes": 6,
        "banking": true,
        "bike_stands": 20,
        "bonus": false,
        "contract_name": "valence",
        "name": "47_AVDA. AUTOPISTA DEL SALER",
        "number": 47,
        "position": {
            "lat": 39.4564800548746,
            "lng": -0.355509029538065
        },
        "status": "OPEN"
    },
    {
        "address": "Antonio Ferrandis - General Urrutia",
        "available_bike_stands": 16,
        "available_bikes": 4,
        "banking": false,
        "bike_stands": 20,
        "bonus": false,
        "contract_name": "valence",
        "name": "48_AVDA. ANTONIO FERRANDIS",
        "number": 48,
        "position": {
            "lat": 39.4507751420051,
            "lng": -0.358643429344464
        },
        "status": "OPEN"
    },
    {
        "address": "Ricardo Mu\u00f1oz Suay - Mar\u00eda Jos\u00e9 Victoria Fuster (C.C. El Saler)",
        "available_bike_stands": 24,
        "available_bikes": 1,
        "banking": false,
        "bike_stands": 25,
        "bonus": false,
        "contract_name": "valence",
        "name": "49_C/ RICARDO MU\u00d1OZ SUAY",
        "number": 49,
        "position": {
            "lat": 39.4529547221767,
            "lng": -0.35720111550767
        },
        "status": "OPEN"
    },
    {
        "address": "Autopista del Saler - Antonio Ferrandis (C.C. El Saler)",
        "available_bike_stands": 30,
        "available_bikes": 10,
        "banking": true,
        "bike_stands": 40,
        "bonus": false,
        "contract_name": "valence",
        "name": "50_AVDA. AUTOPISTA DEL SALER",
        "number": 50,
        "position": {
            "lat": 39.4532860449334,
            "lng": -0.352950020141597
        },
        "status": "OPEN"
    },
    {
        "address": "Moreras (Oceanogr\u00e1fico)",
        "available_bike_stands": 18,
        "available_bikes": 2,
        "banking": true,
        "bike_stands": 20,
        "bonus": false,
        "contract_name": "valence",
        "name": "51_PSO. DE LAS MORERAS",
        "number": 51,
        "position": {
            "lat": 39.4521510429352,
            "lng": -0.347318002649104
        },
        "status": "OPEN"
    },
    {
        "address": "Luis Garc\u00eda Berlanga Mart\u00ed - Menorca",
        "available_bike_stands": 18,
        "available_bikes": 7,
        "banking": true,
        "bike_stands": 25,
        "bonus": false,
        "contract_name": "valence",
        "name": "52_C/ LUIS GARCIA BERLANGA",
        "number": 52,
        "position": {
            "lat": 39.4560020562084,
            "lng": -0.346431002074561
        },
        "status": "OPEN"
    },
    {
        "address": "Alameda - Pintor Maella",
        "available_bike_stands": 15,
        "available_bikes": 10,
        "banking": false,
        "bike_stands": 25,
        "bonus": false,
        "contract_name": "valence",
        "name": "53_C/ LUIS GARCIA BERLANGA",
        "number": 53,
        "position": {
            "lat": 39.456732058086,
            "lng": -0.348230007860048
        },
        "status": "OPEN"
    },
    {
        "address": "Plaza de Europa",
        "available_bike_stands": 3,
        "available_bikes": 17,
        "banking": true,
        "bike_stands": 20,
        "bonus": false,
        "contract_name": "valence",
        "name": "54_PASEO ALAMEDA",
        "number": 54,
        "position": {
            "lat": 39.4597460667729,
            "lng": -0.352781023126671
        },
        "status": "OPEN"
    },
    {
        "address": "Francia - Pintor Maella",
        "available_bike_stands": 16,
        "available_bikes": 9,
        "banking": false,
        "bike_stands": 25,
        "bonus": false,
        "contract_name": "valence",
        "name": "55_AVDA. DE FRANCIA",
        "number": 55,
        "position": {
            "lat": 39.4593110666043,
            "lng": -0.348777010892994
        },
        "status": "OPEN"
    },
    {
        "address": "Francia - Menorca",
        "available_bike_stands": 1,
        "available_bikes": 14,
        "banking": false,
        "bike_stands": 15,
        "bonus": false,
        "contract_name": "valence",
        "name": "56_AVDA. DE FRANCIA",
        "number": 56,
        "position": {
            "lat": 39.4583890648843,
            "lng": -0.344495997567289
        },
        "status": "OPEN"
    },
    {
        "address": "Alameda - Pintor Monle\u00f3n",
        "available_bike_stands": 18,
        "available_bikes": 2,
        "banking": true,
        "bike_stands": 20,
        "bonus": false,
        "contract_name": "valence",
        "name": "057_CALLE PINTOR MONLEON",
        "number": 57,
        "position": {
            "lat": 39.464444080812,
            "lng": -0.35834704234339
        },
        "status": "OPEN"
    },
    {
        "address": "Plaza Espa\u00f1a",
        "available_bike_stands": 20,
        "available_bikes": 0,
        "banking": true,
        "bike_stands": 20,
        "bonus": false,
        "contract_name": "valence",
        "name": "058_PLAZA DE ESPA\u00d1A",
        "number": 58,
        "position": {
            "lat": 39.4661860791448,
            "lng": -0.381677113224894
        },
        "status": "OPEN"
    },
    {
        "address": "Baleares - R\u00edo Escalona",
        "available_bike_stands": 15,
        "available_bikes": 0,
        "banking": true,
        "bike_stands": 15,
        "bonus": false,
        "contract_name": "valence",
        "name": "059_AVDA. DE BALEARES I",
        "number": 59,
        "position": {
            "lat": 39.4630560773318,
            "lng": -0.354640030484729
        },
        "status": "OPEN"
    },
    {
        "address": "Baleares - Leb\u00f3n",
        "available_bike_stands": 19,
        "available_bikes": 0,
        "banking": false,
        "bike_stands": 19,
        "bonus": false,
        "contract_name": "valence",
        "name": "060_AVDA.BALEARES II",
        "number": 60,
        "position": {
            "lat": 39.4621990753403,
            "lng": -0.351867021712218
        },
        "status": "OPEN"
    },
    {
        "address": "Vicent Vidal - Pintor Maella",
        "available_bike_stands": 17,
        "available_bikes": 3,
        "banking": true,
        "bike_stands": 20,
        "bonus": false,
        "contract_name": "valence",
        "name": "061_VICENTE VIDAL",
        "number": 61,
        "position": {
            "lat": 39.4612610734563,
            "lng": -0.347921009381426
        },
        "status": "OPEN"
    },
    {
        "address": "Menorca - Baleares",
        "available_bike_stands": 14,
        "available_bikes": 6,
        "banking": true,
        "bike_stands": 20,
        "bonus": false,
        "contract_name": "valence",
        "name": "062_MENORCA",
        "number": 62,
        "position": {
            "lat": 39.4597790703012,
            "lng": -0.342242991568314
        },
        "status": "OPEN"
    },
    {
        "address": "Av Puerto 19 (Telef\u00f3nica)",
        "available_bike_stands": 0,
        "available_bikes": 20,
        "banking": true,
        "bike_stands": 20,
        "bonus": false,
        "contract_name": "valence",
        "name": "063_AVDA. DEL PUERTO I",
        "number": 63,
        "position": {
            "lat": 39.4677470918986,
            "lng": -0.358505044597536
        },
        "status": "OPEN"
    },
    {
        "address": "Av. Puerto 61-63",
        "available_bike_stands": 10,
        "available_bikes": 9,
        "banking": false,
        "bike_stands": 20,
        "bonus": false,
        "contract_name": "valence",
        "name": "064_AVDA. DEL PUERTO II",
        "number": 64,
        "position": {
            "lat": 39.4664860890115,
            "lng": -0.354286031274125
        },
        "status": "OPEN"
    },
    {
        "address": "Av. Puerto - Doctor Manuel Candela",
        "available_bike_stands": 18,
        "available_bikes": 1,
        "banking": true,
        "bike_stands": 19,
        "bonus": false,
        "contract_name": "valence",
        "name": "065_AVDA. DEL PUERTO III",
        "number": 65,
        "position": {
            "lat": 39.4654840867199,
            "lng": -0.350928020671138
        },
        "status": "OPEN"
    },
    {
        "address": "Guillem de Anglesola - Av. Puerto",
        "available_bike_stands": 21,
        "available_bikes": 4,
        "banking": false,
        "bike_stands": 25,
        "bonus": false,
        "contract_name": "valence",
        "name": "066_GUILLEN DE ANGLESOLA",
        "number": 66,
        "position": {
            "lat": 39.4642390840045,
            "lng": -0.346352006288128
        },
        "status": "OPEN"
    },
    {
        "address": "Juan Verdeguer - Toneleros",
        "available_bike_stands": 13,
        "available_bikes": 1,
        "banking": false,
        "bike_stands": 14,
        "bonus": false,
        "contract_name": "valence",
        "name": "067_JUAN VERDEGUER",
        "number": 67,
        "position": {
            "lat": 39.4588280688327,
            "lng": -0.336888975014669
        },
        "status": "OPEN"
    },
    {
        "address": "Av. Puerto - Jos\u00e9 Aguilar",
        "available_bike_stands": 13,
        "available_bikes": 3,
        "banking": true,
        "bike_stands": 20,
        "bonus": false,
        "contract_name": "valence",
        "name": "068_AVDA. DEL PUERTO IV",
        "number": 68,
        "position": {
            "lat": 39.462771080523,
            "lng": -0.341823991929563
        },
        "status": "OPEN"
    },
    {
        "address": "Av. Puerto - Serrer\u00eda",
        "available_bike_stands": 18,
        "available_bikes": 7,
        "banking": false,
        "bike_stands": 25,
        "bonus": false,
        "contract_name": "valence",
        "name": "069_AVDA. DEL PUERTO",
        "number": 69,
        "position": {
            "lat": 39.461920078631,
            "lng": -0.338811982446624
        },
        "status": "OPEN"
    },
    {
        "address": "Col\u00f3n, 44",
        "available_bike_stands": 15,
        "available_bikes": 2,
        "banking": false,
        "bike_stands": 17,
        "bonus": false,
        "contract_name": "valence",
        "name": "70_CALLE_COLON_ESQ_ALMIRANTE_ROGER_DE_LAURIA",
        "number": 70,
        "position": {
            "lat": 39.469181,
            "lng": -0.371737
        },
        "status": "OPEN"
    },
    {
        "address": "Av. Puerto - Plaza Tribunal de les Aig\u00fces",
        "available_bike_stands": 8,
        "available_bikes": 12,
        "banking": true,
        "bike_stands": 20,
        "bonus": false,
        "contract_name": "valence",
        "name": "071_AVDA DEL PUERTO VI",
        "number": 71,
        "position": {
            "lat": 39.4603480750162,
            "lng": -0.333621966050435
        },
        "status": "OPEN"
    },
    {
        "address": "Ramiro de Maeztu - Peris Brell",
        "available_bike_stands": 12,
        "available_bikes": 3,
        "banking": false,
        "bike_stands": 15,
        "bonus": false,
        "contract_name": "valence",
        "name": "072_RAMIRO MAETZU",
        "number": 72,
        "position": {
            "lat": 39.467225,
            "lng": -0.346537
        },
        "status": "OPEN"
    },
    {
        "address": "Jer\u00f3nimo Monsoriu - Industria",
        "available_bike_stands": 16,
        "available_bikes": 4,
        "banking": true,
        "bike_stands": 20,
        "bonus": false,
        "contract_name": "valence",
        "name": "073_JERONIMO MONSORIU",
        "number": 73,
        "position": {
            "lat": 39.4662270918011,
            "lng": -0.342969997228533
        },
        "status": "OPEN"
    },
    {
        "address": "Plaza San Felipe Neri (Mercado Algir\u00f3s)",
        "available_bike_stands": 2,
        "available_bikes": 18,
        "banking": true,
        "bike_stands": 20,
        "bonus": false,
        "contract_name": "valence",
        "name": "074_PLAZA SAN FELIPE NERI",
        "number": 74,
        "position": {
            "lat": 39.4699171007281,
            "lng": -0.353825031741888
        },
        "status": "OPEN"
    },
    {
        "address": "Rep\u00fablica Argentina - Campoamor",
        "available_bike_stands": 8,
        "available_bikes": 17,
        "banking": false,
        "bike_stands": 25,
        "bonus": false,
        "contract_name": "valence",
        "name": "075_CAMPOAMOR I",
        "number": 75,
        "position": {
            "lat": 39.4720811086804,
            "lng": -0.351792026815861
        },
        "status": "OPEN"
    },
    {
        "address": "Campoamor - M\u00fasico Gin\u00e9s",
        "available_bike_stands": 6,
        "available_bikes": 13,
        "banking": true,
        "bike_stands": 19,
        "bonus": false,
        "contract_name": "valence",
        "name": "076_CAMPOAMOR II",
        "number": 76,
        "position": {
            "lat": 39.4700511045018,
            "lng": -0.343552001034738
        },
        "status": "OPEN"
    },
    {
        "address": "Molinell - Calder\u00f3n de la Barca",
        "available_bike_stands": 9,
        "available_bikes": 11,
        "banking": true,
        "bike_stands": 20,
        "bonus": false,
        "contract_name": "valence",
        "name": "77_C/ MOLINELL",
        "number": 77,
        "position": {
            "lat": 39.4849411475299,
            "lng": -0.365758075579642
        },
        "status": "OPEN"
    },
    {
        "address": "Arag\u00f3n - Vicente Sancho Tello",
        "available_bike_stands": 10,
        "available_bikes": 10,
        "banking": true,
        "bike_stands": 20,
        "bonus": false,
        "contract_name": "valence",
        "name": "078_AVDA. ARAG\u00d3N I",
        "number": 78,
        "position": {
            "lat": 39.4699130991134,
            "lng": -0.358779046585651
        },
        "status": "OPEN"
    },
    {
        "address": "Arag\u00f3n - Ernesto Ferrer",
        "available_bike_stands": 7,
        "available_bikes": 13,
        "banking": false,
        "bike_stands": 20,
        "bonus": false,
        "contract_name": "valence",
        "name": "079_AVDA. ARAGON II",
        "number": 79,
        "position": {
            "lat": 39.4727471091356,
            "lng": -0.357333043778256
        },
        "status": "OPEN"
    },
    {
        "address": "Amadeo de Saboya (frente Ayuntamiento)",
        "available_bike_stands": 16,
        "available_bikes": 9,
        "banking": false,
        "bike_stands": 25,
        "bonus": false,
        "contract_name": "valence",
        "name": "080_AMADEO SAVOIA",
        "number": 80,
        "position": {
            "lat": 39.4737101107501,
            "lng": -0.362389059448826
        },
        "status": "OPEN"
    },
    {
        "address": "Micer Masc\u00f3 - Rodriguez Fornos",
        "available_bike_stands": 18,
        "available_bikes": 2,
        "banking": false,
        "bike_stands": 20,
        "bonus": false,
        "contract_name": "valence",
        "name": "081_DOCTOR FORNOS",
        "number": 81,
        "position": {
            "lat": 39.4750961158493,
            "lng": -0.361069056238335
        },
        "status": "OPEN"
    },
    {
        "address": "Guillem de Castro (Torres de Quart)",
        "available_bike_stands": 4,
        "available_bikes": 11,
        "banking": false,
        "bike_stands": 15,
        "bonus": false,
        "contract_name": "valence",
        "name": "082_GUILLEN_DE_CASTRO_TORRES_DE_QUART",
        "number": 82,
        "position": {
            "lat": 39.4760241115844,
            "lng": -0.384005125495213
        },
        "status": "OPEN"
    },
    {
        "address": "General Elio - Llano del Real",
        "available_bike_stands": 18,
        "available_bikes": 7,
        "banking": true,
        "bike_stands": 25,
        "bonus": false,
        "contract_name": "valence",
        "name": "83_PZA. DE LA LEGI\u00d3N ESPA\u00d1OLA",
        "number": 83,
        "position": {
            "lat": 39.4775531222011,
            "lng": -0.367061075518166
        },
        "status": "OPEN"
    },
    {
        "address": "Serrer\u00eda, 67",
        "available_bike_stands": 1,
        "available_bikes": 14,
        "banking": false,
        "bike_stands": 15,
        "bonus": false,
        "contract_name": "valence",
        "name": "84_SERRERIA_ESQ_PINTOR FERRER CALATAYUD",
        "number": 84,
        "position": {
            "lat": 39.4672620977876,
            "lng": -0.335255974679776
        },
        "status": "OPEN"
    },
    {
        "address": "Blasco Iba\u00f1ez - Jaime Roig",
        "available_bike_stands": 14,
        "available_bikes": 8,
        "banking": false,
        "bike_stands": 23,
        "bonus": false,
        "contract_name": "valence",
        "name": "085_AVDA_BLASCO IBA\u00d1EZ 1",
        "number": 85,
        "position": {
            "lat": 39.4794321292633,
            "lng": -0.364806069768998
        },
        "status": "OPEN"
    },
    {
        "address": "Gaspar Aguilar - Vicente Parra",
        "available_bike_stands": 7,
        "available_bikes": 13,
        "banking": true,
        "bike_stands": 20,
        "bonus": false,
        "contract_name": "valence",
        "name": "86_AVDA_GASPAR_AGUILAR_ESQ_VICENTE_PARRA",
        "number": 86,
        "position": {
            "lat": 39.45520803899,
            "lng": -0.391284136125771
        },
        "status": "OPEN"
    },
    {
        "address": "Blasco Iba\u00f1ez - Doctor G\u00f3mez Ferrer (Cl\u00ednico)",
        "available_bike_stands": 23,
        "available_bikes": 10,
        "banking": true,
        "bike_stands": 33,
        "bonus": false,
        "contract_name": "valence",
        "name": "87_AVDA BLASCO IBA\u00d1EZ 2",
        "number": 87,
        "position": {
            "lat": 39.4784861269877,
            "lng": -0.361971060764256
        },
        "status": "OPEN"
    },
    {
        "address": "Blasco Iba\u00f1ez, 28 (F. Geograf\u00eda e Historia)",
        "available_bike_stands": 36,
        "available_bikes": 4,
        "banking": true,
        "bike_stands": 40,
        "bonus": false,
        "contract_name": "valence",
        "name": "088_AVDA. BLASCO IBA\u00d1EZ 3",
        "number": 88,
        "position": {
            "lat": 39.4774801238339,
            "lng": -0.361233058011854
        },
        "status": "OPEN"
    },
    {
        "address": "Blasco Iba\u00f1ez, 23 (F. Filosof\u00eda y Psicolog\u00eda)",
        "available_bike_stands": 24,
        "available_bikes": 6,
        "banking": false,
        "bike_stands": 30,
        "bonus": false,
        "contract_name": "valence",
        "name": "89_AVDA. BLASCO IBA\u00d1EZ",
        "number": 89,
        "position": {
            "lat": 39.4777701253999,
            "lng": -0.359409052701581
        },
        "status": "OPEN"
    },
    {
        "address": "Blasco Iba\u00f1ez, 32 (F. Filolog\u00eda)",
        "available_bike_stands": 35,
        "available_bikes": 5,
        "banking": false,
        "bike_stands": 40,
        "bonus": false,
        "contract_name": "valence",
        "name": "90_AVDA. BLASCO IBA\u00d1EZ",
        "number": 90,
        "position": {
            "lat": 39.4767021219125,
            "lng": -0.35905805107551
        },
        "status": "OPEN"
    },
    {
        "address": "Grabador Jordan - Escultor Pastor",
        "available_bike_stands": 1,
        "available_bikes": 14,
        "banking": false,
        "bike_stands": 15,
        "bonus": false,
        "contract_name": "valence",
        "name": "091_CALLE_GRABADOR_JORDAN_46_PLAZA_ESCULTOR_PASTOR",
        "number": 91,
        "position": {
            "lat": 39.4440930091404,
            "lng": -0.367664059275921
        },
        "status": "OPEN"
    },
    {
        "address": "Blasco Iba\u00f1ez - Arag\u00f3n",
        "available_bike_stands": 7,
        "available_bikes": 13,
        "banking": true,
        "bike_stands": 20,
        "bonus": false,
        "contract_name": "valence",
        "name": "092_AVDA. DE ARAGON, 4 - ESQ AVDA BLASCO IBA\u00d1EZ",
        "number": 92,
        "position": {
            "lat": 39.4758281199338,
            "lng": -0.356059041618514
        },
        "status": "OPEN"
    },
    {
        "address": "Blasco Iba\u00f1ez - Poeta Dur\u00e1n Tortajada",
        "available_bike_stands": 2,
        "available_bikes": 36,
        "banking": true,
        "bike_stands": 38,
        "bonus": false,
        "contract_name": "valence",
        "name": "93_AVADA_BLASCO_IBA\u00d1EZ_DESP_C_POETA_DURAN_TORTAJAD",
        "number": 93,
        "position": {
            "lat": 39.4722501118008,
            "lng": -0.34390000326249
        },
        "status": "OPEN"
    },
    {
        "address": "Blasco Iba\u00f1ez - Clariano",
        "available_bike_stands": 2,
        "available_bikes": 18,
        "banking": false,
        "bike_stands": 20,
        "bonus": false,
        "contract_name": "valence",
        "name": "094_AVDA. BLASCO IBA\u00d1EZ 5",
        "number": 94,
        "position": {
            "lat": 39.4753461197244,
            "lng": -0.351674028220146
        },
        "status": "OPEN"
    },
    {
        "address": "Naranjos (Magisterio)",
        "available_bike_stands": 8,
        "available_bikes": 25,
        "banking": false,
        "bike_stands": 33,
        "bonus": false,
        "contract_name": "valence",
        "name": "95_AVDA. DE LOS NARANJOS",
        "number": 95,
        "position": {
            "lat": 39.4798031365094,
            "lng": -0.34621001424835
        },
        "status": "OPEN"
    },
    {
        "address": "Blasco Iba\u00f1ez - Yecla",
        "available_bike_stands": 10,
        "available_bikes": 11,
        "banking": true,
        "bike_stands": 21,
        "bonus": false,
        "contract_name": "valence",
        "name": "096_AVDA. BLASCO IBA\u00d1EZ 6",
        "number": 96,
        "position": {
            "lat": 39.4735221146643,
            "lng": -0.348305017144382
        },
        "status": "OPEN"
    },
    {
        "address": "Blasco Iba\u00f1ez 121",
        "available_bike_stands": 3,
        "available_bikes": 20,
        "banking": false,
        "bike_stands": 23,
        "bonus": false,
        "contract_name": "valence",
        "name": "097_AVDA. BLASCO IBA\u00d1EZ 7",
        "number": 97,
        "position": {
            "lat": 39.4730361146687,
            "lng": -0.343223001657882
        },
        "status": "OPEN"
    },
    {
        "address": "Justo y Pastor - Duque de Gaeta",
        "available_bike_stands": 7,
        "available_bikes": 7,
        "banking": true,
        "bike_stands": 15,
        "bonus": false,
        "contract_name": "valence",
        "name": "098_SANTOS JUSTO Y PASTOR",
        "number": 98,
        "position": {
            "lat": 39.4696481015324,
            "lng": -0.348533015740284
        },
        "status": "OPEN"
    },
    {
        "address": "Blasco Iba\u00f1ez - Pintor Jos\u00e9 Mongrell",
        "available_bike_stands": 11,
        "available_bikes": 10,
        "banking": true,
        "bike_stands": 21,
        "bonus": false,
        "contract_name": "valence",
        "name": "099_AVDA. BLASCO IBA\u00d1EZ 8",
        "number": 99,
        "position": {
            "lat": 39.4713121097146,
            "lng": -0.34057499279659
        },
        "status": "OPEN"
    },
    {
        "address": "Blasco Iba\u00f1ez - Mestre Ripoll",
        "available_bike_stands": 4,
        "available_bikes": 16,
        "banking": false,
        "bike_stands": 20,
        "bonus": false,
        "contract_name": "valence",
        "name": "100_AVDA. BLASCO IBA\u00d1EZ 9",
        "number": 100,
        "position": {
            "lat": 39.4716021114468,
            "lng": -0.33824098596173
        },
        "status": "OPEN"
    },
    {
        "address": "Marino Blas de Lezo (estaci\u00f3n Caba\u00f1al Adif)",
        "available_bike_stands": 4,
        "available_bikes": 26,
        "banking": true,
        "bike_stands": 30,
        "bonus": false,
        "contract_name": "valence",
        "name": "101_AVDA. BLASCO IBA\u00d1EZ 10",
        "number": 101,
        "position": {
            "lat": 39.4700361073957,
            "lng": -0.334451973768557
        },
        "status": "OPEN"
    },
    {
        "address": "Ram\u00f3n Llull - Serpis",
        "available_bike_stands": 0,
        "available_bikes": 20,
        "banking": false,
        "bike_stands": 20,
        "bonus": false,
        "contract_name": "valence",
        "name": "102_AVDA.RAMON LLUL",
        "number": 102,
        "position": {
            "lat": 39.4758011228282,
            "lng": -0.346811013895548
        },
        "status": "OPEN"
    },
    {
        "address": "Rub\u00e9n Dar\u00edo - Plaza Fray Luis Colomer",
        "available_bike_stands": 4,
        "available_bikes": 11,
        "banking": false,
        "bike_stands": 15,
        "bonus": false,
        "contract_name": "valence",
        "name": "103_RUBEN DARIO",
        "number": 103,
        "position": {
            "lat": 39.4784211298349,
            "lng": -0.35246203223541
        },
        "status": "OPEN"
    },
    {
        "address": "Albalat dels Tarongers - Paseo Facultades",
        "available_bike_stands": 6,
        "available_bikes": 14,
        "banking": true,
        "bike_stands": 20,
        "bonus": false,
        "contract_name": "valence",
        "name": "104_ALBALAT DELS TARONGERS",
        "number": 104,
        "position": {
            "lat": 39.4783541312533,
            "lng": -0.34736601693197
        },
        "status": "OPEN"
    },
    {
        "address": "Aularios Universidad de Valencia",
        "available_bike_stands": 11,
        "available_bikes": 19,
        "banking": false,
        "bike_stands": 30,
        "bonus": false,
        "contract_name": "valence",
        "name": "105_AVDA. DE LOS NARANJOS",
        "number": 105,
        "position": {
            "lat": 39.478319,
            "lng": -0.344486
        },
        "status": "OPEN"
    },
    {
        "address": "Albalat dels Tarongers - Professor Ernest Lluch",
        "available_bike_stands": 2,
        "available_bikes": 23,
        "banking": false,
        "bike_stands": 25,
        "bonus": false,
        "contract_name": "valence",
        "name": "106_AVDA. DE LOS NARANJOS",
        "number": 106,
        "position": {
            "lat": 39.4767121276205,
            "lng": -0.341477998410525
        },
        "status": "OPEN"
    },
    {
        "address": "Campillo de Altobuey (Polideportivo)",
        "available_bike_stands": 1,
        "available_bikes": 13,
        "banking": false,
        "bike_stands": 15,
        "bonus": false,
        "contract_name": "valence",
        "name": "107_C/ CAMPILLO ALTO BUEY",
        "number": 107,
        "position": {
            "lat": 39.4752131242374,
            "lng": -0.336314982139155
        },
        "status": "OPEN"
    },
    {
        "address": "Lu\u00eds Peix\u00f3 20",
        "available_bike_stands": 2,
        "available_bikes": 13,
        "banking": true,
        "bike_stands": 15,
        "bonus": false,
        "contract_name": "valence",
        "name": "108_ LUIS PEIXO",
        "number": 108,
        "position": {
            "lat": 39.473794,
            "lng": -0.334006
        },
        "status": "OPEN"
    },
    {
        "address": "Naranjos - Ingeniero Fausto Elio",
        "available_bike_stands": 2,
        "available_bikes": 18,
        "banking": true,
        "bike_stands": 20,
        "bonus": false,
        "contract_name": "valence",
        "name": "109_AVDA. NARANJOS",
        "number": 109,
        "position": {
            "lat": 39.4767871304178,
            "lng": -0.333600974859012
        },
        "status": "OPEN"
    },
    {
        "address": "UPV Trinquet",
        "available_bike_stands": 2,
        "available_bikes": 28,
        "banking": false,
        "bike_stands": 30,
        "bonus": false,
        "contract_name": "valence",
        "name": "110_KISSHOMARU",
        "number": 110,
        "position": {
            "lat": 39.4807081426045,
            "lng": -0.336770986463246
        },
        "status": "OPEN"
    },
    {
        "address": "UPV Galileo",
        "available_bike_stands": 21,
        "available_bikes": 9,
        "banking": false,
        "bike_stands": 30,
        "bonus": false,
        "contract_name": "valence",
        "name": "111_UNIVERSIDAD POLITECNICA \u2013 JUNTO PISTAS DEPORTI",
        "number": 111,
        "position": {
            "lat": 39.480632,
            "lng": -0.339599
        },
        "status": "OPEN"
    },
    {
        "address": "Manuel Broseta i Pont - Naranjos",
        "available_bike_stands": 21,
        "available_bikes": 19,
        "banking": true,
        "bike_stands": 40,
        "bonus": false,
        "contract_name": "valence",
        "name": "112_AVDA. DE LOS NARANJOS",
        "number": 112,
        "position": {
            "lat": 39.4785481335207,
            "lng": -0.342366002058633
        },
        "status": "OPEN"
    },
    {
        "address": "UPV Caminos",
        "available_bike_stands": 33,
        "available_bikes": 5,
        "banking": true,
        "bike_stands": 38,
        "bonus": false,
        "contract_name": "valence",
        "name": "113_ETS CAMINOS",
        "number": 113,
        "position": {
            "lat": 39.4812441421744,
            "lng": -0.343702007510602
        },
        "status": "OPEN"
    },
    {
        "address": "UPV Inform\u00e1tica",
        "available_bike_stands": 4,
        "available_bikes": 26,
        "banking": false,
        "bike_stands": 30,
        "bonus": false,
        "contract_name": "valence",
        "name": "114_ADOLFO SUAREZ",
        "number": 114,
        "position": {
            "lat": 39.4817721429927,
            "lng": -0.346682016720988
        },
        "status": "OPEN"
    },
    {
        "address": "Catalu\u00f1a - Doctor Vicente Zaragoz\u00e1",
        "available_bike_stands": 1,
        "available_bikes": 15,
        "banking": false,
        "bike_stands": 16,
        "bonus": false,
        "contract_name": "valence",
        "name": "115_C/ DR. VICENTE ZARAGOZA",
        "number": 115,
        "position": {
            "lat": 39.4815301403857,
            "lng": -0.352239033238509
        },
        "status": "OPEN"
    },
    {
        "address": "Doctor Vicente Zaragoz\u00e1 - Ram\u00f3n Asensio",
        "available_bike_stands": 7,
        "available_bikes": 8,
        "banking": true,
        "bike_stands": 15,
        "bonus": false,
        "contract_name": "valence",
        "name": "116_C/ DR. VICENTE ZARAGOZA",
        "number": 116,
        "position": {
            "lat": 39.4832211443412,
            "lng": -0.357652050365347
        },
        "status": "OPEN"
    },
    {
        "address": "Gasc\u00f3 Oliag - Primado Reig",
        "available_bike_stands": 0,
        "available_bikes": 0,
        "banking": true,
        "bike_stands": 30,
        "bonus": false,
        "contract_name": "valence",
        "name": "117_PRIMADO REIG",
        "number": 117,
        "position": {
            "lat": 39.479219131011,
            "lng": -0.357156046729095
        },
        "status": "OPEN"
    },
    {
        "address": "G\u00f3mez Ferrer - \u00c1lvaro de Baz\u00e1n",
        "available_bike_stands": 10,
        "available_bikes": 10,
        "banking": false,
        "bike_stands": 20,
        "bonus": false,
        "contract_name": "valence",
        "name": "118_C/ DR. GOMEZ FERRER",
        "number": 118,
        "position": {
            "lat": 39.4804341340267,
            "lng": -0.360507057423573
        },
        "status": "OPEN"
    },
    {
        "address": "Jaime Roig - Bachiller",
        "available_bike_stands": 5,
        "available_bikes": 14,
        "banking": false,
        "bike_stands": 20,
        "bonus": false,
        "contract_name": "valence",
        "name": "119_C/ JAIME ROIG",
        "number": 119,
        "position": {
            "lat": 39.482488140046,
            "lng": -0.363317066947724
        },
        "status": "OPEN"
    },
    {
        "address": "Doctor Vicente Zaragoz\u00e1 - Emilio Bar\u00f3",
        "available_bike_stands": 2,
        "available_bikes": 16,
        "banking": true,
        "bike_stands": 18,
        "bonus": false,
        "contract_name": "valence",
        "name": "120_C_DR VICENTE ZARAGOZA",
        "number": 120,
        "position": {
            "lat": 39.4848481483816,
            "lng": -0.362137064678155
        },
        "status": "OPEN"
    },
    {
        "address": "Murta - Sant Eperit",
        "available_bike_stands": 5,
        "available_bikes": 10,
        "banking": false,
        "bike_stands": 15,
        "bonus": false,
        "contract_name": "valence",
        "name": "121_C_MURTA",
        "number": 121,
        "position": {
            "lat": 39.4861501538243,
            "lng": -0.358862055563278
        },
        "status": "OPEN"
    },
    {
        "address": "M\u00fasico Hip\u00f3lito Mart\u00ednez - Di\u00f3genes L\u00f3pez Mecho",
        "available_bike_stands": 3,
        "available_bikes": 12,
        "banking": false,
        "bike_stands": 15,
        "bonus": false,
        "contract_name": "valence",
        "name": "122_C_M\u00daSICO HIP\u00d3LITO MART\u00cdNEZ",
        "number": 122,
        "position": {
            "lat": 39.4844531496192,
            "lng": -0.354157040555065
        },
        "status": "OPEN"
    },
    {
        "address": "Alboc\u00e1cer - Vinaroz",
        "available_bike_stands": 14,
        "available_bikes": 6,
        "banking": false,
        "bike_stands": 20,
        "bonus": false,
        "contract_name": "valence",
        "name": "123_C_ALBOCACER",
        "number": 123,
        "position": {
            "lat": 39.4876391568909,
            "lng": -0.364932074551232
        },
        "status": "OPEN"
    },
    {
        "address": "Azagador de Alboraya - Dolores Marqu\u00e9s",
        "available_bike_stands": 5,
        "available_bikes": 20,
        "banking": true,
        "bike_stands": 25,
        "bonus": false,
        "contract_name": "valence",
        "name": "124_C/ AZAGADOR DE ALBORAYA",
        "number": 124,
        "position": {
            "lat": 39.4884691606166,
            "lng": -0.362046066347782
        },
        "status": "OPEN"
    },
    {
        "address": "Masquefa, 42 - 44",
        "available_bike_stands": 7,
        "available_bikes": 8,
        "banking": false,
        "bike_stands": 15,
        "bonus": false,
        "contract_name": "valence",
        "name": "125_C/ MASQUEFA",
        "number": 125,
        "position": {
            "lat": 39.4896611657071,
            "lng": -0.358709056987903
        },
        "status": "OPEN"
    },
    {
        "address": "Alfahuir - Jos\u00e9 Chabas Bordehore",
        "available_bike_stands": 14,
        "available_bikes": 6,
        "banking": false,
        "bike_stands": 20,
        "bonus": false,
        "contract_name": "valence",
        "name": "126_C/ ALFAUIR",
        "number": 126,
        "position": {
            "lat": 39.4930661767053,
            "lng": -0.36019506326505
        },
        "status": "OPEN"
    },
    {
        "address": "Alfahuir - Duque de Mandas",
        "available_bike_stands": 7,
        "available_bikes": 13,
        "banking": false,
        "bike_stands": 20,
        "bonus": false,
        "contract_name": "valence",
        "name": "127_C/ DUQUE DE MANDAS",
        "number": 127,
        "position": {
            "lat": 39.4905591668607,
            "lng": -0.36453707493258
        },
        "status": "OPEN"
    },
    {
        "address": "Alfahuir - Pe\u00f1iscola",
        "available_bike_stands": 6,
        "available_bikes": 19,
        "banking": true,
        "bike_stands": 25,
        "bonus": false,
        "contract_name": "valence",
        "name": "128_C/ ALFAUIR",
        "number": 128,
        "position": {
            "lat": 39.4887341597133,
            "lng": -0.367635083238739
        },
        "status": "OPEN"
    },
    {
        "address": "Almazora - Benimuslem",
        "available_bike_stands": 7,
        "available_bikes": 13,
        "banking": true,
        "bike_stands": 20,
        "bonus": false,
        "contract_name": "valence",
        "name": "129_C_ALMAZORA",
        "number": 129,
        "position": {
            "lat": 39.485943149532,
            "lng": -0.37003608893869
        },
        "status": "OPEN"
    },
    {
        "address": "Convento Carmelitas - Alboraya",
        "available_bike_stands": 9,
        "available_bikes": 6,
        "banking": false,
        "bike_stands": 15,
        "bonus": false,
        "contract_name": "valence",
        "name": "130_C/ CONVENTO CARMELITAS",
        "number": 130,
        "position": {
            "lat": 39.4832061402186,
            "lng": -0.370301088264948
        },
        "status": "OPEN"
    },
    {
        "address": "CALLE SANTA AMALIA  2, esquina POETA BODRIA",
        "available_bike_stands": 5,
        "available_bikes": 15,
        "banking": true,
        "bike_stands": 20,
        "bonus": false,
        "contract_name": "valence",
        "name": "131_CALLE SANTA AMALIA  2",
        "number": 131,
        "position": {
            "lat": 39.481385,
            "lng": -0.373003
        },
        "status": "OPEN"
    },
    {
        "address": "Platero Su\u00e1rez - Milagrosa",
        "available_bike_stands": 11,
        "available_bikes": 4,
        "banking": false,
        "bike_stands": 15,
        "bonus": false,
        "contract_name": "valence",
        "name": "132_C/ RUAYA",
        "number": 132,
        "position": {
            "lat": 39.485254146087,
            "lng": -0.373525099027208
        },
        "status": "OPEN"
    },
    {
        "address": "Alfambra - Poeta Monmeneu",
        "available_bike_stands": 10,
        "available_bikes": 5,
        "banking": false,
        "bike_stands": 15,
        "bonus": false,
        "contract_name": "valence",
        "name": "133_C/ ALFAMBRA",
        "number": 133,
        "position": {
            "lat": 39.4827241367683,
            "lng": -0.375973105008805
        },
        "status": "OPEN"
    },
    {
        "address": "Maximiliano Thous - Luz Casanova",
        "available_bike_stands": 6,
        "available_bikes": 14,
        "banking": false,
        "bike_stands": 20,
        "bonus": false,
        "contract_name": "valence",
        "name": "134_C/ MAXIMILIANO THOUS",
        "number": 134,
        "position": {
            "lat": 39.4876241541086,
            "lng": -0.373430100012801
        },
        "status": "OPEN"
    },
    {
        "address": "Constituci\u00f3n - Reus",
        "available_bike_stands": 0,
        "available_bikes": 20,
        "banking": true,
        "bike_stands": 20,
        "bonus": false,
        "contract_name": "valence",
        "name": "135_AVDA. CONSTITUCI\u00d3N",
        "number": 135,
        "position": {
            "lat": 39.4856701458608,
            "lng": -0.378592114439778
        },
        "status": "OPEN"
    },
    {
        "address": "Economista Gay - Constituci\u00f3n",
        "available_bike_stands": 4,
        "available_bikes": 16,
        "banking": false,
        "bike_stands": 20,
        "bonus": false,
        "contract_name": "valence",
        "name": "136_CALLE_ECONOMISTA_GAY",
        "number": 136,
        "position": {
            "lat": 39.4899091610835,
            "lng": -0.375701108044157
        },
        "status": "OPEN"
    },
    {
        "address": "Economista Gay - Luis Crumiere",
        "available_bike_stands": 6,
        "available_bikes": 14,
        "banking": true,
        "bike_stands": 20,
        "bonus": false,
        "contract_name": "valence",
        "name": "137_CALLE_ECONOMISTA_GAY",
        "number": 137,
        "position": {
            "lat": 39.4890011566455,
            "lng": -0.379987120406342
        },
        "status": "OPEN"
    },
    {
        "address": "San Pancracio - Periodista Llorente",
        "available_bike_stands": 19,
        "available_bikes": 1,
        "banking": false,
        "bike_stands": 20,
        "bonus": false,
        "contract_name": "valence",
        "name": "138_SAN_PANCRACIO",
        "number": 138,
        "position": {
            "lat": 39.4881581524135,
            "lng": -0.384313132924836
        },
        "status": "OPEN"
    },
    {
        "address": "Reus - Alquer\u00eda de la Estrella",
        "available_bike_stands": 11,
        "available_bikes": 4,
        "banking": false,
        "bike_stands": 15,
        "bonus": false,
        "contract_name": "valence",
        "name": "139_C/ REUS",
        "number": 139,
        "position": {
            "lat": 39.4856741444693,
            "lng": -0.382964127549696
        },
        "status": "OPEN"
    },
    {
        "address": "Campanar - Nicasio Benlloch",
        "available_bike_stands": 13,
        "available_bikes": 7,
        "banking": false,
        "bike_stands": 20,
        "bonus": false,
        "contract_name": "valence",
        "name": "140_AVENIDA_CAMPANAR",
        "number": 140,
        "position": {
            "lat": 39.4879721500597,
            "lng": -0.38969114895134
        },
        "status": "OPEN"
    },
    {
        "address": "Gregorio Gea - Padre Ferris",
        "available_bike_stands": 13,
        "available_bikes": 7,
        "banking": true,
        "bike_stands": 20,
        "bonus": false,
        "contract_name": "valence",
        "name": "141_C/ GREGORIO GEA (PEATONAL)",
        "number": 141,
        "position": {
            "lat": 39.4832361355125,
            "lng": -0.385247133088568
        },
        "status": "OPEN"
    },
    {
        "address": "Gregorio Gea - Profesor Beltr\u00e1n B\u00e1guena",
        "available_bike_stands": 22,
        "available_bikes": 3,
        "banking": false,
        "bike_stands": 25,
        "bonus": false,
        "contract_name": "valence",
        "name": "142_C/ GREGORIO GEA (PEATONAL)",
        "number": 142,
        "position": {
            "lat": 39.4818881295177,
            "lng": -0.389750145869399
        },
        "status": "OPEN"
    },
    {
        "address": "Pio XII - Men\u00e9ndez PIdal (Nuevo Centro)",
        "available_bike_stands": 19,
        "available_bikes": 11,
        "banking": true,
        "bike_stands": 30,
        "bonus": false,
        "contract_name": "valence",
        "name": "143_AVDA. MENENDEZ PIDAL",
        "number": 143,
        "position": {
            "lat": 39.4795051210676,
            "lng": -0.391027148421504
        },
        "status": "OPEN"
    },
    {
        "address": "Marqu\u00e9s de San Juan - Diputat Llu\u00eds Luc\u00eda",
        "available_bike_stands": 9,
        "available_bikes": 6,
        "banking": false,
        "bike_stands": 15,
        "bonus": false,
        "contract_name": "valence",
        "name": "144_CALLE_MARQUES_DE_SAN_JUAN",
        "number": 144,
        "position": {
            "lat": 39.4787471170485,
            "lng": -0.395571161644053
        },
        "status": "OPEN"
    },
    {
        "address": "Plaza Badajoz",
        "available_bike_stands": 10,
        "available_bikes": 5,
        "banking": false,
        "bike_stands": 15,
        "bonus": false,
        "contract_name": "valence",
        "name": "145_PLAZA_BADAJOZ",
        "number": 145,
        "position": {
            "lat": 39.4815151254512,
            "lng": -0.398486171871458
        },
        "status": "OPEN"
    },
    {
        "address": "Av. Campanar (La Fe)",
        "available_bike_stands": 8,
        "available_bikes": 18,
        "banking": true,
        "bike_stands": 26,
        "bonus": false,
        "contract_name": "valence",
        "name": "146_AVDA. CAMPANAR",
        "number": 146,
        "position": {
            "lat": 39.4850781398635,
            "lng": -0.391043151456223
        },
        "status": "OPEN"
    },
    {
        "address": "Pie de la Cruz - Rejas",
        "available_bike_stands": 7,
        "available_bikes": 7,
        "banking": false,
        "bike_stands": 15,
        "bonus": false,
        "contract_name": "valence",
        "name": "147_CALLE_PIE_DE_LA_CRUZ_CALLE_DE_LA_REJA",
        "number": 147,
        "position": {
            "lat": 39.4731691031481,
            "lng": -0.38029811284559
        },
        "status": "OPEN"
    },
    {
        "address": "C/X\u00e0tiva 30-32",
        "available_bike_stands": 33,
        "available_bikes": 2,
        "banking": true,
        "bike_stands": 35,
        "bonus": false,
        "contract_name": "valence",
        "name": "148_X\u00c0TIVA_PLAZA_DE_TOROS",
        "number": 148,
        "position": {
            "lat": 39.467113,
            "lng": -0.375469
        },
        "status": "OPEN"
    },
    {
        "address": "Peris y Valero - Salamanca",
        "available_bike_stands": 10,
        "available_bikes": 10,
        "banking": false,
        "bike_stands": 20,
        "bonus": false,
        "contract_name": "valence",
        "name": "149_AVDA. PERIS Y VALERO",
        "number": 149,
        "position": {
            "lat": 39.4629020744664,
            "lng": -0.361886052119026
        },
        "status": "OPEN"
    },
    {
        "address": "Manuel Candela - Rodriguez de Cepeda",
        "available_bike_stands": 14,
        "available_bikes": 11,
        "banking": false,
        "bike_stands": 25,
        "bonus": false,
        "contract_name": "valence",
        "name": "150_DR. MANUEL CANDELA",
        "number": 150,
        "position": {
            "lat": 39.4676890942275,
            "lng": -0.350700021177111
        },
        "status": "OPEN"
    },
    {
        "address": "Jer\u00f3nimo Monsoriu - Alcalde Cano Coloma",
        "available_bike_stands": 18,
        "available_bikes": 2,
        "banking": false,
        "bike_stands": 20,
        "bonus": false,
        "contract_name": "valence",
        "name": "151_JERONIMO MONSORIU",
        "number": 151,
        "position": {
            "lat": 39.4646370882768,
            "lng": -0.337207979114133
        },
        "status": "OPEN"
    },
    {
        "address": "Reina Do\u00f1a Mar\u00eda - C\u00e1diz",
        "available_bike_stands": 12,
        "available_bikes": 3,
        "banking": true,
        "bike_stands": 15,
        "bonus": false,
        "contract_name": "valence",
        "name": "152_C/ LITERATO AZOR\u00cdN",
        "number": 152,
        "position": {
            "lat": 39.4608930641588,
            "lng": -0.372796083742631
        },
        "status": "OPEN"
    },
    {
        "address": "Llano de la Zaid\u00eda - Doctor Ol\u00f3riz",
        "available_bike_stands": 4,
        "available_bikes": 20,
        "banking": false,
        "bike_stands": 24,
        "bonus": false,
        "contract_name": "valence",
        "name": "153_C/ LLANO DE ZAIDA",
        "number": 153,
        "position": {
            "lat": 39.483026,
            "lng": -0.380682
        },
        "status": "OPEN"
    },
    {
        "address": "Pescadores - Progreso",
        "available_bike_stands": 1,
        "available_bikes": 14,
        "banking": false,
        "bike_stands": 15,
        "bonus": false,
        "contract_name": "valence",
        "name": "154_PESCADORES",
        "number": 154,
        "position": {
            "lat": 39.4698441083049,
            "lng": -0.329644959268791
        },
        "status": "OPEN"
    },
    {
        "address": "Salamanca - Reina Do\u00f1a Germana",
        "available_bike_stands": 14,
        "available_bikes": 5,
        "banking": false,
        "bike_stands": 20,
        "bonus": false,
        "contract_name": "valence",
        "name": "155_C/ SALAMANCA",
        "number": 155,
        "position": {
            "lat": 39.4649210808604,
            "lng": -0.363169057053421
        },
        "status": "OPEN"
    },
    {
        "address": "Puerto Rico - Cuba",
        "available_bike_stands": 10,
        "available_bikes": 5,
        "banking": false,
        "bike_stands": 15,
        "bonus": false,
        "contract_name": "valence",
        "name": "156_C/ CUBA",
        "number": 156,
        "position": {
            "lat": 39.4609320631125,
            "lng": -0.376436094678165
        },
        "status": "OPEN"
    },
    {
        "address": "P\u00e9rez Gald\u00f3s - Marqu\u00e9s de Zenete",
        "available_bike_stands": 5,
        "available_bikes": 15,
        "banking": true,
        "bike_stands": 20,
        "bonus": false,
        "contract_name": "valence",
        "name": "157_AVENIDA_PEREZ_GALDOS",
        "number": 157,
        "position": {
            "lat": 39.464020069969,
            "lng": -0.387457129393968
        },
        "status": "OPEN"
    },
    {
        "address": "Doctor Lluch - Virgen del Sufragio",
        "available_bike_stands": 1,
        "available_bikes": 14,
        "banking": false,
        "bike_stands": 15,
        "bonus": false,
        "contract_name": "valence",
        "name": "158_DR.LLUNCH",
        "number": 158,
        "position": {
            "lat": 39.4666660981916,
            "lng": -0.327809952057852
        },
        "status": "OPEN"
    },
    {
        "address": "Francisco Cubells - San Jos\u00e9 de la Vega",
        "available_bike_stands": 3,
        "available_bikes": 13,
        "banking": false,
        "bike_stands": 17,
        "bonus": false,
        "contract_name": "valence",
        "name": "159_FRANCISCO CUBELLS",
        "number": 159,
        "position": {
            "lat": 39.4634170849731,
            "lng": -0.334812971276553
        },
        "status": "OPEN"
    },
    {
        "address": "Jos\u00e9 Mar\u00eda de Haro - Justo y Pastor",
        "available_bike_stands": 8,
        "available_bikes": 12,
        "banking": false,
        "bike_stands": 20,
        "bonus": false,
        "contract_name": "valence",
        "name": "160_JOSE MARIA DE HARO",
        "number": 160,
        "position": {
            "lat": 39.4673040966933,
            "lng": -0.33907198613268
        },
        "status": "OPEN"
    },
    {
        "address": "Mediterr\u00e1neo - Plaza Cruz de Ca\u00f1amelar",
        "available_bike_stands": 1,
        "available_bikes": 13,
        "banking": true,
        "bike_stands": 15,
        "bonus": false,
        "contract_name": "valence",
        "name": "161_MEDITERRANEO",
        "number": 161,
        "position": {
            "lat": 39.467937101176,
            "lng": -0.331816964744236
        },
        "status": "OPEN"
    },
    {
        "address": "Armada Espa\u00f1ola - Mariano Cuber",
        "available_bike_stands": 0,
        "available_bikes": 19,
        "banking": false,
        "bike_stands": 19,
        "bonus": false,
        "contract_name": "valence",
        "name": "162_PZA. ARMADA ESPA\u00d1OLA",
        "number": 162,
        "position": {
            "lat": 39.4635720870931,
            "lng": -0.32988595660341
        },
        "status": "OPEN"
    },
    {
        "address": "Paseo Neptuno 32-34",
        "available_bike_stands": 7,
        "available_bikes": 13,
        "banking": true,
        "bike_stands": 20,
        "bonus": false,
        "contract_name": "valence",
        "name": "163_PASEO NEPTUNO",
        "number": 163,
        "position": {
            "lat": 39.4644050919738,
            "lng": -0.323491937905993
        },
        "status": "OPEN"
    },
    {
        "address": "Pav\u00eda - Columbretes",
        "available_bike_stands": 15,
        "available_bikes": 2,
        "banking": false,
        "bike_stands": 17,
        "bonus": false,
        "contract_name": "valence",
        "name": "164_PAVIA 1",
        "number": 164,
        "position": {
            "lat": 39.4684281051279,
            "lng": -0.324724943771547
        },
        "status": "OPEN"
    },
    {
        "address": "Pav\u00eda - Espad\u00e1n",
        "available_bike_stands": 12,
        "available_bikes": 7,
        "banking": true,
        "bike_stands": 20,
        "bonus": false,
        "contract_name": "valence",
        "name": "165_PAVIA 2",
        "number": 165,
        "position": {
            "lat": 39.4713771150833,
            "lng": -0.324660945171817
        },
        "status": "OPEN"
    },
    {
        "address": "Pav\u00eda - Acequia de la Cadena",
        "available_bike_stands": 17,
        "available_bikes": 3,
        "banking": false,
        "bike_stands": 20,
        "bonus": false,
        "contract_name": "valence",
        "name": "167_PAVIA 3",
        "number": 167,
        "position": {
            "lat": 39.4748761268572,
            "lng": -0.324700947178956
        },
        "status": "OPEN"
    },
    {
        "address": "Malvarrosa - R\u00edo Tajo",
        "available_bike_stands": 3,
        "available_bikes": 12,
        "banking": false,
        "bike_stands": 15,
        "bonus": false,
        "contract_name": "valence",
        "name": "168_AVDA. MALVARROSA",
        "number": 168,
        "position": {
            "lat": 39.4768391324101,
            "lng": -0.327977958049006
        },
        "status": "OPEN"
    },
    {
        "address": "Pav\u00eda (Instituto Isabel de Villena)",
        "available_bike_stands": 13,
        "available_bikes": 7,
        "banking": true,
        "bike_stands": 20,
        "bonus": false,
        "contract_name": "valence",
        "name": "169_PAVIA 4",
        "number": 169,
        "position": {
            "lat": 39.4787531399051,
            "lng": -0.324735949373236
        },
        "status": "OPEN"
    },
    {
        "address": "Isabel de Villena - Mendiz\u00e1bal",
        "available_bike_stands": 14,
        "available_bikes": 6,
        "banking": false,
        "bike_stands": 20,
        "bonus": false,
        "contract_name": "valence",
        "name": "170_PAVIA 5",
        "number": 170,
        "position": {
            "lat": 39.4829411537881,
            "lng": -0.325424953690914
        },
        "status": "OPEN"
    },
    {
        "address": "Gran Canaria - Ingeniero Manuel Maese",
        "available_bike_stands": 3,
        "available_bikes": 12,
        "banking": false,
        "bike_stands": 15,
        "bonus": false,
        "contract_name": "valence",
        "name": "171_CALLE GRAN CANARIA",
        "number": 171,
        "position": {
            "lat": 39.4830281528956,
            "lng": -0.329098964737767
        },
        "status": "OPEN"
    },
    {
        "address": "P\u00edo XII - Campanar",
        "available_bike_stands": 13,
        "available_bikes": 7,
        "banking": true,
        "bike_stands": 20,
        "bonus": false,
        "contract_name": "valence",
        "name": "172_AVENIDA_PIO_XII",
        "number": 172,
        "position": {
            "lat": 39.4814301267876,
            "lng": -0.39343615667867
        },
        "status": "OPEN"
    },
    {
        "address": "P\u00edo XII - Monestir de Poblet",
        "available_bike_stands": 10,
        "available_bikes": 10,
        "banking": false,
        "bike_stands": 20,
        "bonus": false,
        "contract_name": "valence",
        "name": "173_AVENIDA_PIO_XII_34",
        "number": 173,
        "position": {
            "lat": 39.4845091367472,
            "lng": -0.394769162326153
        },
        "status": "OPEN"
    },
    {
        "address": "Monduber - Peset Aleixandre",
        "available_bike_stands": 15,
        "available_bikes": 3,
        "banking": true,
        "bike_stands": 19,
        "bonus": false,
        "contract_name": "valence",
        "name": "174_CALLE_MONDUBER",
        "number": 174,
        "position": {
            "lat": 39.4894061558441,
            "lng": -0.386738140863954
        },
        "status": "OPEN"
    },
    {
        "address": "Juan XXIII - Domingo G\u00f3mez",
        "available_bike_stands": 14,
        "available_bikes": 1,
        "banking": true,
        "bike_stands": 15,
        "bonus": false,
        "contract_name": "valence",
        "name": "175_CALLE_JUAN_XXIII",
        "number": 175,
        "position": {
            "lat": 39.4925571677332,
            "lng": -0.382803130751858
        },
        "status": "OPEN"
    },
    {
        "address": "Cno. Moncada - Pedro Patricio Mey",
        "available_bike_stands": 0,
        "available_bikes": 20,
        "banking": false,
        "bike_stands": 20,
        "bonus": false,
        "contract_name": "valence",
        "name": "176_CAMINO_DE_MONCADA_52",
        "number": 176,
        "position": {
            "lat": 39.4919851670424,
            "lng": -0.378944118876901
        },
        "status": "OPEN"
    },
    {
        "address": "Alcudia de Crespins - Pedro Patricio Mey",
        "available_bike_stands": 3,
        "available_bikes": 12,
        "banking": true,
        "bike_stands": 15,
        "bonus": false,
        "contract_name": "valence",
        "name": "177_CALLE_ALCUDIA",
        "number": 177,
        "position": {
            "lat": 39.4935131739156,
            "lng": -0.373579103612918
        },
        "status": "OPEN"
    },
    {
        "address": "Reig Genov\u00e9s - Ram\u00f3n Contreras Mongrell",
        "available_bike_stands": 12,
        "available_bikes": 8,
        "banking": false,
        "bike_stands": 20,
        "bonus": false,
        "contract_name": "valence",
        "name": "178_CALLE_REIG_GENOVES",
        "number": 178,
        "position": {
            "lat": 39.4921841703923,
            "lng": -0.37059709396399
        },
        "status": "OPEN"
    },
    {
        "address": "Av. de la Plata - Zapadores",
        "available_bike_stands": 22,
        "available_bikes": 1,
        "banking": false,
        "bike_stands": 23,
        "bonus": false,
        "contract_name": "valence",
        "name": "179_AVENIDA_DE_LA_PLATA_45",
        "number": 179,
        "position": {
            "lat": 39.4554400477968,
            "lng": -0.366517061973888
        },
        "status": "OPEN"
    },
    {
        "address": "Doctor Waksman - Nieves",
        "available_bike_stands": 15,
        "available_bikes": 4,
        "banking": true,
        "bike_stands": 20,
        "bonus": false,
        "contract_name": "valence",
        "name": "180_AVENIDA_DOCTOR_WAKSMAN",
        "number": 180,
        "position": {
            "lat": 39.455989048269,
            "lng": -0.370774075033782
        },
        "status": "OPEN"
    },
    {
        "address": "Zapadores, 23",
        "available_bike_stands": 15,
        "available_bikes": 0,
        "banking": true,
        "bike_stands": 15,
        "bonus": false,
        "contract_name": "valence",
        "name": "181_CALLE_DEL_SALINAR",
        "number": 181,
        "position": {
            "lat": 39.4579670557495,
            "lng": -0.368282068629998
        },
        "status": "OPEN"
    },
    {
        "address": "Ausias March - Pianista Amparo Iturbi",
        "available_bike_stands": 10,
        "available_bikes": 11,
        "banking": false,
        "bike_stands": 21,
        "bonus": false,
        "contract_name": "valence",
        "name": "182_AVDA_AUSIAS_MARCH",
        "number": 182,
        "position": {
            "lat": 39.455400044894,
            "lng": -0.375056087555512
        },
        "status": "OPEN"
    },
    {
        "address": "Ausias March - Av. de la Plata",
        "available_bike_stands": 3,
        "available_bikes": 15,
        "banking": true,
        "bike_stands": 18,
        "bonus": false,
        "contract_name": "valence",
        "name": "183 - AVDA AUSIAS MARCH",
        "number": 183,
        "position": {
            "lat": 39.452588036275,
            "lng": -0.372375077997377
        },
        "status": "OPEN"
    },
    {
        "address": "Bombero Ram\u00f3n Duart - Hermanos Maristas",
        "available_bike_stands": 10,
        "available_bikes": 5,
        "banking": false,
        "bike_stands": 15,
        "bonus": false,
        "contract_name": "valence",
        "name": "184_CALLE_BOMBER_RAMON_DUART",
        "number": 184,
        "position": {
            "lat": 39.4527500389997,
            "lng": -0.365661057953976
        },
        "status": "OPEN"
    },
    {
        "address": "Ebanista Caselles - Ausias March",
        "available_bike_stands": 6,
        "available_bikes": 9,
        "banking": false,
        "bike_stands": 15,
        "bonus": false,
        "contract_name": "valence",
        "name": "185_AVDA_AUSIAS_MARCH",
        "number": 185,
        "position": {
            "lat": 39.450012028161,
            "lng": -0.37059407126453
        },
        "status": "OPEN"
    },
    {
        "address": "Benifair\u00f3 de Valldigna - Joaqu\u00edn Benlloch",
        "available_bike_stands": 1,
        "available_bikes": 13,
        "banking": false,
        "bike_stands": 14,
        "bonus": false,
        "contract_name": "valence",
        "name": "186_CALLE_INGENIERO_JOAQUIN_BENLLOCH",
        "number": 186,
        "position": {
            "lat": 39.4503590281921,
            "lng": -0.374106081983545
        },
        "status": "OPEN"
    },
    {
        "address": "\u00c1ngel Villena - Ausias March",
        "available_bike_stands": 5,
        "available_bikes": 10,
        "banking": true,
        "bike_stands": 15,
        "bonus": false,
        "contract_name": "valence",
        "name": "187_AVDA_AUSIAS_MARCH",
        "number": 187,
        "position": {
            "lat": 39.4479280216762,
            "lng": -0.368909065084874
        },
        "status": "OPEN"
    },
    {
        "address": "Hospital Nueva Fe (consultas externas)",
        "available_bike_stands": 36,
        "available_bikes": 4,
        "banking": false,
        "bike_stands": 40,
        "bonus": false,
        "contract_name": "valence",
        "name": "188_HOSPITAL_NUEVA_FE",
        "number": 188,
        "position": {
            "lat": 39.444589,
            "lng": -0.375249
        },
        "status": "OPEN"
    },
    {
        "address": "Hospital Nueva Fe (administraci\u00f3n)",
        "available_bike_stands": 15,
        "available_bikes": 15,
        "banking": true,
        "bike_stands": 30,
        "bonus": false,
        "contract_name": "valence",
        "name": "189_HOSPITAL_NUEVA_FE",
        "number": 189,
        "position": {
            "lat": 39.444747,
            "lng": -0.377156
        },
        "status": "OPEN"
    },
    {
        "address": "Cra. Malilla - Bulevar Sur",
        "available_bike_stands": 3,
        "available_bikes": 15,
        "banking": true,
        "bike_stands": 18,
        "bonus": false,
        "contract_name": "valence",
        "name": "190_CTRA_MALILLA",
        "number": 190,
        "position": {
            "lat": 39.4460500116106,
            "lng": -0.380387098491455
        },
        "status": "OPEN"
    },
    {
        "address": "Esparraguera - Cra. Malilla",
        "available_bike_stands": 1,
        "available_bikes": 14,
        "banking": false,
        "bike_stands": 15,
        "bonus": false,
        "contract_name": "valence",
        "name": "191_CTRA_MALILLA",
        "number": 191,
        "position": {
            "lat": 39.4502970264089,
            "lng": -0.378957096498364
        },
        "status": "OPEN"
    },
    {
        "address": "Cra. Malilla - Olt\u00e1",
        "available_bike_stands": 2,
        "available_bikes": 18,
        "banking": true,
        "bike_stands": 20,
        "bonus": false,
        "contract_name": "valence",
        "name": "192_CTRA_MALILLA",
        "number": 192,
        "position": {
            "lat": 39.4526050342473,
            "lng": -0.378805097289263
        },
        "status": "OPEN"
    },
    {
        "address": "Uruguay - Carteros",
        "available_bike_stands": 4,
        "available_bikes": 16,
        "banking": true,
        "bike_stands": 20,
        "bonus": false,
        "contract_name": "valence",
        "name": "193_CALLE_CARTEROS",
        "number": 193,
        "position": {
            "lat": 39.4551140401216,
            "lng": -0.38680912265075
        },
        "status": "OPEN"
    },
    {
        "address": "Estaci\u00f3n AVE Joaqu\u00edn Sorolla",
        "available_bike_stands": 36,
        "available_bikes": 4,
        "banking": true,
        "bike_stands": 40,
        "bonus": false,
        "contract_name": "valence",
        "name": "194_ESTACION_AVE_JOAQUIN_SOROLLA",
        "number": 194,
        "position": {
            "lat": 39.4609860617972,
            "lng": -0.381065108588874
        },
        "status": "OPEN"
    },
    {
        "address": "Giorgeta - Roig de Corella",
        "available_bike_stands": 15,
        "available_bikes": 1,
        "banking": false,
        "bike_stands": 16,
        "bonus": false,
        "contract_name": "valence",
        "name": "195_CALLE_GIORGETA",
        "number": 195,
        "position": {
            "lat": 39.4593520552134,
            "lng": -0.384372117626406
        },
        "status": "OPEN"
    },
    {
        "address": "Jer\u00f3nimo Mu\u00f1oz - Gaspar Aguilar",
        "available_bike_stands": 12,
        "available_bikes": 3,
        "banking": true,
        "bike_stands": 15,
        "bonus": false,
        "contract_name": "valence",
        "name": "196_AVDA_GASPAR_AGUILAR",
        "number": 196,
        "position": {
            "lat": 39.4595430546337,
            "lng": -0.388157129082296
        },
        "status": "OPEN"
    },
    {
        "address": "Fontanars dels Aforins - Jacinto Labaila",
        "available_bike_stands": 12,
        "available_bikes": 3,
        "banking": false,
        "bike_stands": 15,
        "bonus": false,
        "contract_name": "valence",
        "name": "197_CALLE_FONTANARS_DELS_AFORINS",
        "number": 197,
        "position": {
            "lat": 39.4581520485586,
            "lng": -0.392424141132886
        },
        "status": "OPEN"
    },
    {
        "address": "Fontanars dels Aforins - Vall d'Uix\u00f3",
        "available_bike_stands": 19,
        "available_bikes": 1,
        "banking": true,
        "bike_stands": 20,
        "bonus": false,
        "contract_name": "valence",
        "name": "198_CALLE_FONTANARS_DELS_AFORINS",
        "number": 198,
        "position": {
            "lat": 39.4608480566945,
            "lng": -0.3954071515343
        },
        "status": "OPEN"
    },
    {
        "address": "Beato Nicol\u00e1s Factor - Convento de Jes\u00fas",
        "available_bike_stands": 6,
        "available_bikes": 9,
        "banking": false,
        "bike_stands": 15,
        "bonus": false,
        "contract_name": "valence",
        "name": "199_CALLE_BEATO_NICOLAS_FACTOR",
        "number": 199,
        "position": {
            "lat": 39.4615560602987,
            "lng": -0.391649140641673
        },
        "status": "OPEN"
    },
    {
        "address": "Av. del Cid - Juli\u00e1n Pe\u00f1a",
        "available_bike_stands": 9,
        "available_bikes": 5,
        "banking": false,
        "bike_stands": 15,
        "bonus": false,
        "contract_name": "valence",
        "name": "200_AVDA_DEL_CID",
        "number": 200,
        "position": {
            "lat": 39.4677050805168,
            "lng": -0.393305148918046
        },
        "status": "OPEN"
    },
    {
        "address": "Perez Gald\u00f3s - Nou Moles",
        "available_bike_stands": 8,
        "available_bikes": 12,
        "banking": false,
        "bike_stands": 20,
        "bonus": false,
        "contract_name": "valence",
        "name": "201_AVDA_PEREZ_GALDOS",
        "number": 201,
        "position": {
            "lat": 39.471680093785,
            "lng": -0.393759152416117
        },
        "status": "OPEN"
    },
    {
        "address": "Pechina - Teruel",
        "available_bike_stands": 9,
        "available_bikes": 11,
        "banking": true,
        "bike_stands": 20,
        "bonus": false,
        "contract_name": "valence",
        "name": "202_PASEO_PECHINA",
        "number": 202,
        "position": {
            "lat": 39.4761901091111,
            "lng": -0.393425153835504
        },
        "status": "OPEN"
    },
    {
        "address": "Reina Violante - Escultor Garc\u00eda Mas",
        "available_bike_stands": 4,
        "available_bikes": 11,
        "banking": false,
        "bike_stands": 15,
        "bonus": false,
        "contract_name": "valence",
        "name": "203_CALLE_REINA_VIOLANTE",
        "number": 203,
        "position": {
            "lat": 39.4845771348881,
            "lng": -0.401273181871356
        },
        "status": "OPEN"
    },
    {
        "address": "Corts Valencianes - General Avil\u00e9s",
        "available_bike_stands": 15,
        "available_bikes": 5,
        "banking": true,
        "bike_stands": 20,
        "bonus": false,
        "contract_name": "valence",
        "name": "204_AVDA_GENERAL_AVILES",
        "number": 204,
        "position": {
            "lat": 39.4858111405269,
            "lng": -0.396678168748875
        },
        "status": "OPEN"
    },
    {
        "address": "Nicasio Benlloch - Amics dels Corpus",
        "available_bike_stands": 15,
        "available_bikes": 9,
        "banking": true,
        "bike_stands": 24,
        "bonus": false,
        "contract_name": "valence",
        "name": "205_CALLE_NICASIO_BENLLOCH",
        "number": 205,
        "position": {
            "lat": 39.4892551532675,
            "lng": -0.393181160103781
        },
        "status": "OPEN"
    },
    {
        "address": "Periodista Gil Sumbiela - Poeta Serrano Clavero",
        "available_bike_stands": 5,
        "available_bikes": 10,
        "banking": false,
        "bike_stands": 15,
        "bonus": false,
        "contract_name": "valence",
        "name": "206_CALLE_PERIODISTA_GIL_SUMBIELA",
        "number": 206,
        "position": {
            "lat": 39.4926801661293,
            "lng": -0.389098149691761
        },
        "status": "OPEN"
    },
    {
        "address": "Giorgeta, 64",
        "available_bike_stands": 7,
        "available_bikes": 8,
        "banking": false,
        "bike_stands": 15,
        "bonus": false,
        "contract_name": "valence",
        "name": "207_CALLE_MILLARES_ESQ_CALLE_FEDERICO_GARCA_LORCA",
        "number": 207,
        "position": {
            "lat": 39.455361042514,
            "lng": -0.381996108347568
        },
        "status": "OPEN"
    },
    {
        "address": "Carteros - Mossen Febrer",
        "available_bike_stands": 10,
        "available_bikes": 10,
        "banking": false,
        "bike_stands": 20,
        "bonus": false,
        "contract_name": "valence",
        "name": "208_CALLE_CARTEROS_ESQ_CALLE_MOSSEN_FEBRER",
        "number": 208,
        "position": {
            "lat": 39.4516600278603,
            "lng": -0.38866912636635
        },
        "status": "OPEN"
    },
    {
        "address": "Gaspar Aguilar - M\u00fasico Penella",
        "available_bike_stands": 13,
        "available_bikes": 5,
        "banking": true,
        "bike_stands": 18,
        "bonus": false,
        "contract_name": "valence",
        "name": "209_AVDA_GASPAR_AGUILAR_ESQ_CALLE_MUSICO_PENELLA",
        "number": 209,
        "position": {
            "lat": 39.4520500277393,
            "lng": -0.393106139888379
        },
        "status": "OPEN"
    },
    {
        "address": "Campos Crespo - Juan de Garay",
        "available_bike_stands": 5,
        "available_bikes": 10,
        "banking": true,
        "bike_stands": 15,
        "bonus": false,
        "contract_name": "valence",
        "name": "210_CALLE_CAMPOS_CRESPO_ESQ_CALLE_JUAN_DE_GARAY",
        "number": 210,
        "position": {
            "lat": 39.455521038259,
            "lng": -0.396807152864784
        },
        "status": "OPEN"
    },
    {
        "address": "Fray Jun\u00edpero Serra - Vall d'Uix\u00f3",
        "available_bike_stands": 9,
        "available_bikes": 6,
        "banking": false,
        "bike_stands": 15,
        "bonus": false,
        "contract_name": "valence",
        "name": "211_CALLE_FRAY_JUN\u00cdPERO_SERRA_ESQ_CALLE_VALL_D'UIX",
        "number": 211,
        "position": {
            "lat": 39.4586940486343,
            "lng": -0.397848157697943
        },
        "status": "OPEN"
    },
    {
        "address": "Fray Juan\u00edpero Serra - Torrente",
        "available_bike_stands": 7,
        "available_bikes": 8,
        "banking": false,
        "bike_stands": 15,
        "bonus": false,
        "contract_name": "valence",
        "name": "212_CALLE_FRAY_JUAN\u00cdPERO_SERRA_ESQ_CALLE_TORRENTE",
        "number": 212,
        "position": {
            "lat": 39.4614520570921,
            "lng": -0.40048716710112
        },
        "status": "OPEN"
    },
    {
        "address": "Archiduque Carlos - Jos\u00e9 Mar\u00eda Mortes Lerma",
        "available_bike_stands": 12,
        "available_bikes": 3,
        "banking": false,
        "bike_stands": 15,
        "bonus": false,
        "contract_name": "valence",
        "name": "213_CALLE_ARCHIDUQUE_CARLOS_ESQ_CALLE_JOSE_MA_MOR",
        "number": 213,
        "position": {
            "lat": 39.4631330638726,
            "lng": -0.397063157732616
        },
        "status": "OPEN"
    },
    {
        "address": "Santa Cruz de Tenerife, 21",
        "available_bike_stands": 13,
        "available_bikes": 2,
        "banking": true,
        "bike_stands": 15,
        "bonus": false,
        "contract_name": "valence",
        "name": "214_CALLE_SANTA_CRUZ_DE_TENERIFE_ESQ_CALLE_LLOMBA",
        "number": 214,
        "position": {
            "lat": 39.4649000686738,
            "lng": -0.400667169496185
        },
        "status": "OPEN"
    },
    {
        "address": "M\u00fasico Ayll\u00f3n - Francisco Dolz",
        "available_bike_stands": 8,
        "available_bikes": 7,
        "banking": true,
        "bike_stands": 15,
        "bonus": false,
        "contract_name": "valence",
        "name": "215_CALLE_MUSICO_AYLLON_ESQ_CALLE_FRANCISCO_DOLZ",
        "number": 215,
        "position": {
            "lat": 39.4656390724037,
            "lng": -0.39683915840866
        },
        "status": "OPEN"
    },
    {
        "address": "Av. del Cid - Burgos",
        "available_bike_stands": 14,
        "available_bikes": 3,
        "banking": false,
        "bike_stands": 17,
        "bonus": false,
        "contract_name": "valence",
        "name": "216_AVDA_DEL_CID_ESQ_CALLE_BURGOS",
        "number": 216,
        "position": {
            "lat": 39.46913,
            "lng": -0.399552
        },
        "status": "OPEN"
    },
    {
        "address": "Pintor Stolz - Nueve de Octubre",
        "available_bike_stands": 16,
        "available_bikes": 9,
        "banking": true,
        "bike_stands": 25,
        "bonus": false,
        "contract_name": "valence",
        "name": "217_CALLE_9_DE_OCTUBRE_ESQ_CALLE_PINTOR_STOLZ",
        "number": 217,
        "position": {
            "lat": 39.4702960855926,
            "lng": -0.404687184457659
        },
        "status": "OPEN"
    },
    {
        "address": "Salvador Ferrandis Luna - Juan Bautista Vives",
        "available_bike_stands": 11,
        "available_bikes": 4,
        "banking": true,
        "bike_stands": 15,
        "bonus": false,
        "contract_name": "valence",
        "name": "218_CALLE_SALVADOR_FERRANDIS_LUNA_ESQ_CALLE_JUAN_B",
        "number": 218,
        "position": {
            "lat": 39.470708089307,
            "lng": -0.397475163041212
        },
        "status": "OPEN"
    },
    {
        "address": "Cast\u00e1n Tobe\u00f1as - Rincon de Ademuz",
        "available_bike_stands": 9,
        "available_bikes": 9,
        "banking": false,
        "bike_stands": 18,
        "bonus": false,
        "contract_name": "valence",
        "name": "219_CALLE_CASTAN_TOBE\u00d1AS_ESQ_CALLE_VELAZQUEZ",
        "number": 219,
        "position": {
            "lat": 39.472625,
            "lng": -0.403121
        },
        "status": "OPEN"
    },
    {
        "address": "Cast\u00e1n Tobe\u00f1as - Patriques",
        "available_bike_stands": 13,
        "available_bikes": 3,
        "banking": true,
        "bike_stands": 16,
        "bonus": false,
        "contract_name": "valence",
        "name": "220_CALLE_CASTAN_TOBE\u00d1AS_ESQ_CALLE_DE_GOYA",
        "number": 220,
        "position": {
            "lat": 39.4738230995181,
            "lng": -0.398412167524643
        },
        "status": "OPEN"
    },
    {
        "address": "Manuel de Falla - Hern\u00e1ndez L\u00e1zaro",
        "available_bike_stands": 3,
        "available_bikes": 17,
        "banking": true,
        "bike_stands": 20,
        "bonus": false,
        "contract_name": "valence",
        "name": "221_AVDA_MANUEL_DE_FALLA_ESQ_CALLE_HERNANDEZ_LAZAR",
        "number": 221,
        "position": {
            "lat": 39.4752381028348,
            "lng": -0.40294418188015
        },
        "status": "OPEN"
    },
    {
        "address": "Maestro Rodrigo - Manuel de Falla",
        "available_bike_stands": 3,
        "available_bikes": 17,
        "banking": false,
        "bike_stands": 20,
        "bonus": false,
        "contract_name": "valence",
        "name": "222_AVDA_MAESTRO_RODRIGO_ESQ_AVDA_MANUEL_DE_FALLA",
        "number": 222,
        "position": {
            "lat": 39.4768611101047,
            "lng": -0.397373166037864
        },
        "status": "OPEN"
    },
    {
        "address": "Valle de la Ballestera - Hospital Nueve de Octubre",
        "available_bike_stands": 5,
        "available_bikes": 14,
        "banking": true,
        "bike_stands": 20,
        "bonus": false,
        "contract_name": "valence",
        "name": "223_CALLE_VALLE_BALLESTERA_ESQ_PLAZA_POLICIA_LOCAL",
        "number": 223,
        "position": {
            "lat": 39.4785261144674,
            "lng": -0.40127817864509
        },
        "status": "OPEN"
    },
    {
        "address": "Jorge Comin (Metge) - Terrateig",
        "available_bike_stands": 6,
        "available_bikes": 14,
        "banking": false,
        "bike_stands": 20,
        "bonus": false,
        "contract_name": "valence",
        "name": "224_PLAZA_JOSE_MONFORTE_TUDELA_ESQ_CALLE_HERNANDEZ",
        "number": 224,
        "position": {
            "lat": 39.4805361204789,
            "lng": -0.403679186925212
        },